     2.11           OBSERVATION DATA    M                   RINEX VERSION / TYPE
ssrcrin-13.7.0x                         11-APR-25 01:00     PGM / RUN BY / DATE 
(000000000000583293750002) Septentrio proprietary           COMMENT             
SEPT                                                        MARKER NAME         
Unknown                                                     MARKER NUMBER       
Unknown             Unknown                                 OBSERVER / AGENCY   
3083514             SEPT POLARX5E       5.4.0               REC # / TYPE / VERS 
Unknown             Unknown                                 ANT # / TYPE        
 -1908063.1790 -5042727.1373  3400842.2505                  APPROX POSITION XYZ 
        0.0000        0.0000        0.0000                  ANTENNA: DELTA H/E/N
     1     1                                                WAVELENGTH FACT L1/2
    14    C1    L1    L2    P2    P1    C2    C5    L5    C6# / TYPES OF OBSERV 
          L6    C7    L7    C8    L8                        # / TYPES OF OBSERV 
For GPS, L2 corresponds to the L2P carrier phase.           COMMENT             
For GLONASS, L2 corresponds to the L2CA carrier phase.      COMMENT             
  2025     4    11     1     0    0.0000000     GPS         TIME OF FIRST OBS   
                                                            END OF HEADER       
 25  4 11  1  0  0.0000000  0 31G18R20G15E29G05G23R22R21G13G10R08R06
                                E33G24G26R07E13E26E15S33S31E07S35G16
                                E21E08G32E31G27G29E23
  20679983.322 8 108674362.22508  84681474.03007  20679984.949 7  20679983.099 7
  20679985.170 8  20679987.967 8  81153138.58008

  22835697.028 5 122112703.43105  94976591.02806
  22835707.972 6

  20798044.063 8 109294959.67008  85165158.10406  20798045.816 6  20798043.773 6
  20798046.050 7

  26835106.772 6 141019803.97406
                  26835117.854 6 105307251.15806  26835116.138 6 114464311.80606
  26835115.224 7 108054363.38607  26835116.169 7 106680702.34807
  25129369.848 6 132055822.54406 102900720.03905  25129376.931 5  25129369.482 5
  25129377.483 6

  20420513.961 8 107310979.70808  83619220.91807  20420515.730 7  20420513.702 7
  20420516.050 8  20420518.625 8  80135106.99408

  20861748.537 8 111361542.93908  86614612.43307
  20861754.220 7

  19668554.517 8 105250682.20408  81861806.39708
  19668561.580 8

  23631397.547 6 124184056.90706  96766921.86904  23631402.127 4  23631397.074 4


  22514163.675 7 118313034.86107  92192171.73806  22514169.424 6  22514163.345 6
  22514169.486 7  22514166.882 7  88350846.18307

  22995550.560 7 123140413.65607  95776038.81706
  22995564.043 6

  19650814.832 6 104860596.79106


  27605010.852 6 145065444.26306
                  27605018.318 6 108328194.96506  27605017.837 6 117748009.66106
  27605015.740 6 111154130.59706  27605017.149 7 109741165.85307
  24213714.449 6 127244038.07906  99151287.13503  24213723.923 3  24213714.217 3
  24213724.386 6  24213725.262 7  95020002.64507

  24824118.811 6 130451610.63106 101650640.86603  24824129.951 3  24824118.329 3
  24824130.580 6  24824129.283 6  97415191.79506

  19436122.552 8 104043566.12008  80923024.06108
  19436129.497 8

  24299188.211 7 127693177.46107
                  24299194.159 8  95355364.96608  24299191.563 7 103647104.49407
  24299191.928 8  97842880.66608  24299192.997 8  96599122.89108
  24219758.592 7 127276017.28107
                  24219761.830 8  95043986.83508  24219762.805 7 103308610.56607
  24219760.014 8  97523365.99508  24219760.833 8  96283681.98708
  28075485.652 6 147537563.79506
                  28075499.384 6 110174144.33106  28075494.922 6 119754508.39406
  28075496.585 6 113048247.49506  28075498.091 7 111611195.98607
  37104931.137 7 194987713.66107
                  37104929.073 6 145607717.29506

  36827870.490 7 193531783.90507
                  36827881.175 7 144520541.81407

  23969925.680 7 125963289.74007
                  23969931.960 8  94063804.34608  23969929.622 8 102242700.67308
  23969929.785 8  96517603.19308  23969930.742 8  95290704.84508
  36976264.598 7 194311583.21807
                  36976269.005 6 145102820.97406

  24058466.537 6 126428130.85906  98515454.52403  24058470.619 3  24058465.666 3


  27381974.260 6 143893199.68306
                  27381987.107 6 107452741.00106  27381984.391 6 116796455.97706
  27381984.441 6 110255848.71906  27381985.902 7 108854297.93307
  25201163.710 7 132433329.14807
                  25201167.972 7  98895226.12707  25201167.312 7 107494735.03307
  25201165.998 8 101475076.62908  25201166.933 8 100185148.95208
  24805039.616 6 130351620.76606 101572834.73703  24805053.936 3  24805039.554 3
  24805053.894 6  24805053.333 6  97340707.84106

  28165947.136 6 148013080.00806
                  28165956.810 6 110529292.84906  28165953.281 6 120140514.47906
  28165954.702 6 113412653.24706  28165955.797 6 111970979.61906
  23628259.929 6 124167389.62806  96753857.02104  23628265.893 4  23628259.339 4
  23628266.576 6  23628265.577 7  92722449.90607

  22079386.478 7 116028050.03907  90411540.73306  22079390.171 6  22079386.210 6
  22079390.377 6

  26608817.659 6 139830323.26106
                  26608825.797 6 104418792.27406  26608823.664 6 113498672.61506
  26608823.724 7 107142752.84607  26608824.549 7 105780776.63307
 25  4 11  1  0 15.0000000  0 31G18R20G15E29G05G23R22R21G13G10R08R06
                                E33G24G26R07E13E26E15S33S31E07S35G16
                                E21E08G32E31G27G29E23
  20679068.787 8 108669557.65608  84677730.21106  20679070.628 6  20679068.564 6
  20679070.787 8  20679073.687 8  81149550.75008

  22843721.587 5 122155621.64905  95009971.78106
  22843734.315 6

  20802785.202 8 109319873.46408  85184571.44406  20802786.791 6  20802784.912 6
  20802787.159 7

  26826418.891 6 140974150.88206
                  26826429.940 7 105273159.74007  26826428.256 6 114427255.84206
  26826427.351 6 108019382.61406  26826428.454 7 106646166.25207
  25137933.013 6 132100823.98706 102935786.05005  25137940.692 5  25137932.651 5
  25137941.386 6

  20420590.997 8 107311385.78408  83619537.35206  20420592.990 6  20420590.738 6
  20420593.346 8  20420595.927 8  80135410.24108

  20853800.752 8 111319114.43608  86581612.51807
  20853805.754 7

  19669690.742 8 105256761.07108  81866534.40208
  19669697.394 8

  23639734.128 6 124227865.69806  96801058.55704  23639738.644 4  23639733.663 4


  22509154.909 7 118286712.39907  92171660.77206  22509160.366 6  22509154.570 6
  22509160.740 7  22509157.845 7  88331189.85807

  22984117.090 7 123079190.95707  95728421.42606
  22984131.231 6

  19656529.887 6 104891097.29306


  27599500.910 6 145036490.23406
                  27599508.476 6 108306573.53906  27599507.597 6 117724508.07706
  27599505.817 6 111131945.11906  27599507.341 7 109719262.40307
  24206659.365 6 127206963.78406  99122398.20103  24206668.776 3  24206659.106 3
  24206670.322 6  24206670.263 7  94992317.43507

  24829570.994 6 130480263.02106 101672967.32903  24829583.032 3  24829570.485 3
  24829583.219 6  24829581.985 7  97436587.98307

  19431210.575 8 104017269.85208  80902571.44008
  19431217.381 8

  24301004.631 7 127702722.34307
                  24301010.528 8  95362492.63008  24301007.988 7 103654851.95407
  24301008.343 8  97850194.26608  24301009.325 8  96606343.52308
  24216530.815 7 127259054.50407
                  24216533.945 8  95031319.82808  24216534.926 7 103294842.07007
  24216532.096 8  97510368.54508  24216532.912 8  96270849.75908
  28080490.025 6 147563862.71106
                  28080503.985 6 110193783.13206  28080499.849 6 119775854.91206
  28080501.686 6 113068398.60106  28080502.650 7 111631090.94007
  37104933.802 7 194987735.96907
                  37104933.612 6 145607733.75506

  36827871.076 7 193531785.82207
                  36827881.568 7 144520543.24507

  23965555.896 7 125940326.15707
                  23965562.051 8  94046656.24808  23965559.759 8 102224061.42408
  23965559.955 8  96500007.75308  23965560.893 8  95273333.07508
  36976273.792 7 194311637.23907
                  36976279.294 6 145102861.35206

  24061522.842 6 126444194.27406  98527971.45803  24061527.657 3  24061521.966 3


  27389219.305 6 143931273.65006
                  27389232.968 6 107481172.75406  27389229.246 6 116827360.10306
  27389229.803 6 110285022.20706  27389231.191 7 108883100.55607
  25204560.245 7 132451178.33807
                  25204564.480 7  98908555.06607  25204563.845 7 107509223.01007
  25204562.499 8 101488753.28508  25204563.515 8 100198651.74808
  24794704.514 6 130297314.12806 101530518.18903  24794719.247 3  24794704.425 3
  24794719.451 6  24794719.219 6  97300154.54206

  28164594.642 6 148005973.14506
                  28164604.617 6 110523985.79406  28164600.397 6 120134745.92706
  28164602.148 6 113407207.73806  28164603.480 6 111965603.33506
  23619610.507 7 124121937.16707  96718439.57804  23619616.782 4  23619609.922 4
  23619617.272 6  23619616.111 7  92688508.20207

  22088400.410 7 116075418.11007  90448450.87706  22088404.243 6  22088400.142 6
  22088404.390 7

  26613041.713 6 139852519.90706
                  26613049.787 6 104435367.65706  26613047.150 6 113516689.36406
  26613047.641 7 107159760.63507  26613048.453 7 105797568.22007
 25  4 11  1  0 30.0000000  0 32G18R20G15E29G05G23R22R21G13G10R08R06
                                E33R23G24G26R07E13E26E15S33S31E07S35
                                G16E21E08G32E31G27G29E23
  20678166.150 8 108664814.97808  84674034.62206  20678168.147 6  20678165.931 6
  20678168.402 8  20678171.212 8  81146009.14108

  22851762.335 5 122198617.84005  95043413.24307
  22851775.299 7

  20807552.443 8 109344926.87408  85204093.57406  20807554.364 6  20807552.166 6
  20807554.645 7

  26817733.331 6 140928507.62706
                  26817744.275 7 105239075.67607  26817742.590 6 114390207.87706
  26817741.730 7 107984409.37107  26817742.676 7 106611637.60207
  25146492.619 6 132145803.56206 102970835.03305  25146500.147 5  25146492.253 5
  25146500.356 5

  20420681.510 8 107311859.91008  83619906.81207  20420683.205 7  20420681.256 7
  20420683.369 8  20420686.159 8  80135764.30608

  20845859.846 8 111276725.34808  86548643.24807
  20845864.828 7

  19670850.663 8 105262966.30708  81871360.70107
  19670857.209 7

  23648088.733 6 124271768.02806  96835268.13403  23648092.525 3  23648088.237 3


  22504156.768 7 118260448.50607  92151195.43706  22504162.456 6  22504156.429 6
  22504162.912 7  22504160.000 7  88311577.25207

  22972694.079 7 123018026.88607  95680849.62506
  22972709.271 6

  19662274.295 6 104921745.32106


  27593987.921 6 145007518.72906
                  27593995.496 6 108284939.05306  27593994.352 6 117700992.28506
  27593992.625 6 111109746.23206  27593994.206 7 109697345.71507
  24596832.238 6 131576484.65616


  24199610.352 6 127169920.23206  99093533.22403  24199619.674 3  24199610.102 3
  24199619.827 6  24199621.084 7  94964655.17807

  24835030.530 6 130508952.73906 101695322.86303  24835042.762 3  24835030.007 3
  24835042.868 6  24835041.429 7  97458012.01607

  19426329.826 8 103991144.75608  80882251.94808
  19426336.992 8

  24302826.016 7 127712294.60007
                  24302832.068 8  95369640.74308  24302829.476 7 103662621.64307
  24302829.737 8  97857528.85508  24302830.867 8  96613584.87408
  24213304.442 7 127242100.33707
                  24213307.574 8  95018659.26408  24213308.545 8 103281080.58508
  24213305.774 8  97497377.70508  24213306.636 8  96258024.05808
  28085498.039 6 147590181.67606
                  28085512.552 6 110213436.87606  28085507.500 6 119797217.68506
  28085509.676 6 113088565.06206  28085510.921 7 111651001.03807
  37104938.672 7 194987757.80307
                  37104937.516 6 145607750.11606

  36827872.686 7 193531787.16307
                  36827881.662 7 144520544.58707

  23961203.274 7 125917452.09107
                  23961209.244 8  94029575.00808  23961206.817 8 102205494.84808
  23961207.123 8  96482480.90708  23961208.082 8  95256029.03308
  36976284.448 7 194311690.08907
                  36976289.342 6 145102900.66506

  24064600.043 6 126460364.15206  98540571.35403  24064604.420 3  24064599.176 3


  27396462.678 6 143969337.08506
                  27396476.296 6 107509596.63806  27396473.848 6 116858255.67606
  27396473.251 6 110314187.58706  27396474.589 7 108911895.18507
  25207974.999 7 132469122.20307
                  25207979.103 7  98921954.70707  25207978.321 7 107523787.83907
  25207977.090 8 101502502.48508  25207978.126 8 100212226.16808
  24784370.940 6 130243011.61306 101488204.85603  24784385.878 3  24784370.815 3
  24784386.383 6  24784385.632 6  97259604.33106

  28163260.062 6 147998961.13606
                  28163270.487 6 110518749.59306  28163266.169 6 120129054.39606
  28163267.641 6 113401834.91906  28163269.126 6 111960298.82406
  23610974.851 6 124076558.25006  96683079.43304  23610981.176 4  23610974.275 4
  23610981.536 6  23610980.722 7  92654621.41307

  22097429.294 7 116122865.87707  90485423.12106  22097433.231 6  22097429.008 6
  22097433.320 7

  26617278.329 6 139874784.24706
                  26617286.427 6 104451993.58606  26617284.107 6 113534761.03806
  26617284.616 7 107176820.29207  26617285.244 7 105814411.01207
 25  4 11  1  0 45.0000000  0 32G18R20G15E29G05G23R22R21G13G10R08R06
                                E33R23G24G26R07E13E26E15S33S31E07S35
                                G16E21E08G32E31G27G29E23
  20677275.722 8 108660136.13308  84670388.77407  20677277.793 7  20677275.508 7
  20677277.840 8  20677280.872 8  81142515.20708

  22859816.675 5 122241693.71705  95076916.59307
  22859830.572 7

  20812347.055 8 109370121.47108  85223725.72306  20812348.815 6  20812346.778 6
  20812348.830 7

  26809049.534 6 140882876.24106
                  26809060.541 6 105205000.47506  26809059.209 6 114353169.54106
  26809058.018 6 107949445.21806  26809059.116 7 106577117.92507
  25155049.331 6 132190762.89406 103005868.23105  25155055.778 5  25155048.969 5
  25155056.006 6

  20420784.845 8 107312403.72308  83620330.57207  20420786.701 7  20420784.595 7
  20420786.918 8  20420789.620 8  80136170.41308

  20837926.657 8 111234377.85508  86515706.35007
  20837931.854 7

  19672033.885 8 105269300.12608  81876287.00607
  19672040.510 7

  23656460.632 6 124315765.42106  96869551.77904  23656465.182 4  23656460.136 4


  22499170.641 7 118234244.92307  92130777.10106  22499176.123 6  22499170.306 6
  22499176.169 7  22499173.547 7  88292009.68707

  22961284.457 7 122956923.26907  95633324.81406
  22961297.636 6

  19668044.989 6 104952542.29106


  27588471.702 6 144978531.47206
                  27588479.297 6 108263292.80406  27588478.314 6 117677463.73906
  27588476.525 6 111087535.30806  27588478.053 7 109675417.12907
  24586816.114 6 131522907.44206


  24192567.439 6 127132909.55706  99064693.85203  24192576.600 3  24192567.203 3
  24192577.277 6  24192577.752 7  94937017.49907

  24840497.807 6 130537681.21206 101717708.59803  24840509.679 3  24840497.280 3
  24840509.822 6  24840508.588 7  97479464.98807

  19421481.723 8 103965193.14208  80862067.39208
  19421488.876 8

  24304653.232 7 127721896.14907
                  24304659.131 8  95376810.73008  24304656.459 7 103670415.10307
  24304656.838 8  97864885.87908  24304657.981 8  96620848.37908
  24210080.183 7 127225156.67707
                  24210083.280 8  95006006.54508  24210084.390 8 103267327.62608
  24210081.510 8  97484394.91008  24210082.355 8  96245206.30108
  28090510.436 6 147616522.50306
                  28090525.200 6 110233106.96706  28090519.882 6 119818598.21606
  28090521.962 6 113108748.28506  28090523.476 7 111670927.69907
  37104942.482 7 194987780.91607
                  37104941.880 6 145607767.57006

  36827873.115 7 193531789.62507
                  36827882.109 7 144520546.24407

  23956867.784 7 125894669.47707
                  23956873.813 8  94012562.04808  23956871.456 8 102187002.48308
  23956871.724 8  96465024.12908  23956872.660 8  95238794.16308
  36976293.297 7 194311744.22507
                  36976299.635 6 145102941.31106

  24067698.289 6 126476641.91106  98553255.31103  24067701.980 3  24067697.382 3


  27403704.049 6 144007391.55406
                  27403717.729 6 107538013.82006  27403715.237 6 116889143.95506
  27403714.830 6 110343346.10106  27403716.190 7 108940683.03407
  25211407.700 7 132487162.41107
                  25211412.093 7  98935426.28707  25211411.495 7 107538430.85907
  25211410.123 7 101516325.48907  25211411.049 8 100225873.46008
  24774038.953 6 130188715.30506 101445896.37203  24774052.982 3  24774038.851 3
  24774052.953 6  24774052.779 6  97219058.76106

  28161944.699 6 147992045.84706
                  28161954.466 6 110513585.58206  28161950.177 6 120123441.33206
  28161951.770 6 113396536.21306  28161953.132 7 111955067.46307
  23602354.501 6 124031255.03206  96647778.27304  23602360.182 4  23602353.929 4
  23602361.297 6  23602359.558 7  92620791.15607

  22106473.656 7 116170394.76407  90522458.57306  22106477.687 6  22106473.352 6
  22106478.012 7

  26621528.479 6 139897117.84906
                  26621536.362 6 104468671.24306  26621534.264 6 113552888.94506
  26621534.519 7 107193933.02807  26621535.266 7 105831306.20707
 25  4 11  1  1  0.0000000  0 32G18R20G15E29G05G23R22R21G13G10R08R06
                                E33R23G24G26R07E13E26E15S33S31E07S35
                                G16E21E08G32E31G27G29E23
  20676396.504 8 108655516.34708  84666788.93907  20676398.695 7  20676396.281 7
  20676398.885 8  20676401.766 8  81139065.36808

  22867887.059 5 122284844.03905  95110477.91806
  22867899.382 6

  20817167.182 8 109395451.93208  85243463.74206  20817169.027 6  20817166.910 6
  20817169.444 7

  26800367.977 6 140837251.98406
                  26800378.510 7 105170930.60607  26800376.842 6 114316137.01506
  26800376.060 6 107914486.56506  26800376.987 7 106542603.65807
  25163599.269 6 132235696.72106 103040881.56205  25163606.330 5  25163598.889 5
  25163606.079 5

  20420900.486 8 107313012.15408  83620804.68607  20420902.489 7  20420900.241 7
  20420902.567 8  20420905.442 8  80136624.77608

  20830000.687 8 111192067.33108  86482798.18107
  20830005.568 7

  19673240.489 8 105275757.62608  81881309.50108
  19673247.443 8

  23664850.958 6 124359852.66706  96903905.43004  23664854.988 4  23664850.462 4


  22494194.946 7 118208096.69007  92110401.90106  22494200.254 6  22494194.616 6
  22494200.453 7  22494197.638 7  88272483.46207

  22949883.309 7 122895875.68407  95585843.63406
  22949897.189 6

  19673843.212 6 104983482.62506


  27582951.633 6 144949523.59206
                  27582959.221 6 108241631.14606  27582957.987 6 117653918.40906
  27582956.485 6 111065308.54006  27582957.942 7 109653472.91707
  24576792.402 6 131469284.91906


  24185529.111 6 127095927.29606  99035876.64303  24185539.223 3  24185528.848 3
  24185539.643 6  24185540.267 7  94909401.01007

  24845971.304 6 130566443.16006 101740120.43003  24845982.922 3  24845970.759 3
  24845982.859 6  24845981.849 7  97500942.95907

  19416665.085 8 103939409.96208  80842013.83308
  19416672.385 8

  24306484.941 7 127731522.14207
                  24306490.855 8  95383998.97008  24306488.249 7 103678228.41407
  24306488.641 8  97872261.64008  24306489.741 8  96628130.37908
  24206857.107 7 127208218.66307
                  24206860.093 8  94993358.03208  24206861.155 8 103253579.23908
  24206858.289 8  97471416.43508  24206859.160 8  96232392.80608
  28095526.465 6 147642880.31906
                  28095540.385 6 110252789.74206  28095535.640 6 119839992.53206
  28095537.532 6 113128944.51306  28095539.125 7 111690867.20007
  37104947.150 7 194987799.26707
                  37104945.484 6 145607781.08306

  36827871.000 7 193531787.35907
                  36827881.760 7 144520544.44407

  23952548.687 7 125871973.53107
                  23952554.893 8  93995613.81308  23952552.508 8 102168580.47808
  23952552.712 8  96447633.76308  23952553.748 8  95221624.86308
  36976305.929 7 194311793.90907
                  36976309.026 6 145102978.42106

  24070815.327 6 126493022.40306  98566019.31903  24070819.063 3  24070814.397 3


  27410943.372 6 144045431.83706
                  27410956.416 6 107566420.42106  27410953.169 6 116920020.75506
  27410953.326 6 110372493.74706  27410955.044 7 108969460.15507
  25214858.131 7 132505293.87907
                  25214862.361 7  98948966.01907  25214861.621 7 107553147.96207
  25214860.417 7 101530218.43707  25214861.362 8 100239589.80208
  24763706.736 6 130134420.57806 101403589.08503  24763720.328 3  24763706.611 3
  24763721.435 6  24763720.965 6  97178514.35206

  28160646.269 6 147985222.31606
                  28160655.938 6 110508490.10606  28160651.759 6 120117902.74406
  28160653.500 6 113391307.78506  28160654.550 7 111949905.51407
  23593746.587 6 123986022.90906  96612532.52305  23593753.355 5  23593746.006 5
  23593753.348 6  23593752.337 7  92587013.97407

  22115532.691 7 116217999.64407  90559553.24006  22115536.573 6  22115532.387 6
  22115536.708 6

  26625790.545 6 139919515.55006
                  26625798.595 6 104485396.77306  26625796.836 6 113571068.89306
  26625796.541 7 107211094.89307  26625797.416 7 105848249.90407
 25  4 11  1  1 15.0000000  0 32G18R20G15E29G05G23R22R21G13G10R08R06
                                E33R23G24G26R07E13E26E15S33S31E07S35
                                G16E21E08G32E31G27G29E23
  20675529.865 8 108650961.64108  84663239.81707  20675531.969 7  20675529.637 7
  20675532.194 8  20675535.005 8  81135664.12308

  22875971.579 5 122328074.49305  95144101.51307
  22875984.208 7

  20822014.165 8 109420923.84308  85263311.98006  20822016.190 6  20822013.879 6
  20822016.674 7

  26791688.105 6 140791640.97906
                  26791699.084 7 105136870.61707  26791697.473 6 114279115.21806
  26791696.179 6 107879538.03506  26791697.322 7 106508099.40207
  25172146.053 6 132280611.06906 103075879.70304  25172153.179 4  25172145.678 4
  25172153.881 5

  20421029.727 8 107313690.94408  83621333.62207  20421031.603 7  20421029.482 7
  20421031.558 8  20421034.578 8  80137131.67808

  20822082.275 8 111149800.05308  86449923.65607
  20822087.694 7

  19674471.743 8 105282345.03008  81886433.03207
  19674478.185 7

  23673258.386 6 124404034.82806  96938333.05304  23673262.797 4  23673257.904 4


  22489230.454 7 118182009.59307  92090074.33606  22489236.028 6  22489230.106 6
  22489236.292 7  22489233.455 7  88253002.89407

  22938495.871 7 122834890.43007  95538410.89406
  22938508.016 6

  19679669.468 6 105014571.89406


  27577428.778 6 144920500.88406
                  27577436.237 6 108219958.42706  27577435.413 6 117630361.10006
  27577433.918 6 111043070.45206  27577434.983 7 109631517.51007
  24566761.333 6 131415622.93206


  24178498.101 6 127058979.69706  99007086.41803  24178508.451 3  24178497.838 3
  24178508.324 6  24178509.171 7  94881810.42607

  24851452.524 5 130595244.09205 101762562.62403  24851463.835 3  24851452.033 3
  24851463.251 5  24851462.986 7  97522450.04807

  19411880.985 8 103913801.27208  80822095.99908
  19411888.282 8

  24308322.391 7 127741178.53407
                  24308328.462 8  95391209.90708  24308325.766 7 103686066.39007
  24308326.198 8  97879660.69208  24308327.292 8  96635435.37408
  24203636.020 7 127191292.22507
                  24203639.121 8  94980718.16408  24203640.205 8 103239840.25108
  24203637.292 8  97458446.83308  24203638.161 8  96219588.07108
  28100547.002 6 147669261.03806
                  28100560.916 6 110272489.60706  28100556.528 6 119861405.43906
  28100557.982 6 113149158.31406  28100559.335 7 111710824.03407
  37104949.377 7 194987819.41907
                  37104949.258 6 145607796.10406

  36827871.009 7 193531787.56407
                  36827881.747 7 144520544.73607

  23948247.375 7 125849370.25307
                  23948253.616 8  93978734.77408  23948251.268 8 102150233.68208
  23948251.471 8  96430314.40008  23948252.459 8  95204525.66208
  36976313.911 7 194311845.82407
                  36976318.841 6 145103017.17106

  24073952.827 6 126509511.28906  98578867.78303  24073956.850 3  24073951.888 3


  27418180.471 6 144083463.61506
                  27418194.028 6 107594820.65906  27418191.690 6 116950890.60606
  27418191.202 6 110401634.88206  27418192.459 7 108998230.84407
  25218326.689 7 132523522.36207
                  25218330.982 7  98962578.19707  25218330.498 7 107567943.81407
  25218329.183 7 101544185.71507  25218330.107 8 100253379.52908
  24753376.412 6 130080133.59906 101361287.86603  24753389.949 3  24753376.247 3
  24753390.441 6  24753389.791 6  97137975.73806

  28159366.077 6 147978496.40006
                  28159375.984 6 110503467.53406  28159371.815 6 120112443.42806
  28159373.671 6 113386154.20706  28159374.633 7 111944817.44107
  23585153.954 6 123940868.06506  96577346.99004  23585160.668 4  23585153.391 4
  23585160.647 6  23585159.698 7  92553294.51307

  22124607.166 7 116265685.92207  90596711.33306  22124610.881 6  22124606.862 6
  22124610.978 6

  26630065.872 6 139941983.05106
                  26630073.962 6 104502174.41706  26630072.041 6 113589305.45206
  26630072.117 7 107228310.20107  26630072.855 7 105865246.37907
 25  4 11  1  1 30.0000000  0 32G18R20G15E29G05G23R22R21G13G10R08R06
                                E33R23G24G26R07E13E26E15S33S31E07S35
                                G16E21E08G32E31G27G29E23
  20674675.776 8 108646472.99808  84659742.17407  20674677.831 7  20674675.535 7
  20674678.065 8  20674680.852 8  81132312.21608

  22884070.277 5 122371386.21805  95177788.33806
  22884083.545 6

  20826888.394 8 109446537.79908  85283270.90106  20826890.371 6  20826888.099 6
  20826890.701 7

  26783011.355 6 140746044.24606
                  26783022.036 7 105102821.29307  26783020.239 6 114242105.01806
  26783019.332 6 107844600.44406  26783020.384 7 106473605.94407
  25180689.725 6 132325506.77406 103110863.32404  25180696.504 4  25180689.341 4
  25180697.397 5

  20421172.513 8 107314440.77008  83621917.91507  20421174.297 7  20421172.268 7
  20421174.405 8  20421177.290 8  80137691.62408

  20814172.138 8 111107577.23308  86417083.72007
  20814177.954 7

  19675726.775 8 105289063.34408  81891658.37907
  19675733.855 7

  23681683.693 6 124448312.87206  96972835.39004  23681688.791 4  23681683.220 4


  22484278.110 7 118155984.47007  92069795.06406  22484283.590 6  22484277.748 6
  22484283.831 7  22484281.068 7  88233568.60407

  22927118.737 7 122773968.75907  95491027.61106
  22927131.727 6

  19685523.910 6 105045810.49906


  27571903.175 6 144891464.25806
                  27571910.787 6 108198275.30806  27571909.720 6 117606792.43406
  27571908.207 6 111020821.66706  27571909.457 7 109609551.55707
  24556721.564 6 131361922.72706


  24171473.958 6 127022068.00606  98978324.18603  24171484.234 3  24171473.681 3
  24171484.174 6  24171485.260 7  94854246.63707

  24856940.226 5 130624084.52605 101785035.61003  24856951.401 3  24856939.761 3
  24856951.651 6  24856950.993 7  97543986.63107

  19407129.420 8 103888367.93308  80802314.54508
  19407136.898 8

  24310165.955 7 127750866.25507
                  24310171.981 8  95398444.24708  24310169.347 7 103693929.79807
  24310169.760 8  97887083.75008  24310170.812 8  96642764.07308
  24200417.364 7 127174378.29107
                  24200420.544 8  94968087.63908  24200421.544 8 103226111.41708
  24200418.635 8  97445486.81008  24200419.527 8  96206792.79808
  28105571.726 6 147695665.53306
                  28105585.598 6 110292207.24806  28105580.811 6 119882837.66006
  28105582.452 6 113169390.30406  28105583.994 7 111730798.85107
  37104953.746 7 194987842.09607
                  37104953.439 6 145607813.09106

  36827873.025 7 193531790.06407
                  36827882.167 7 144520546.61907

  23943963.984 7 125826860.61107
                  23943970.160 8  93961925.66908  23943967.708 8 102131962.90108
  23943968.033 8  96413066.78708  23943968.989 8  95187497.30308
  36976324.478 7 194311899.74907
                  36976329.143 6 145103057.47606

  24077110.928 6 126526109.11806  98591801.13703  24077115.402 3  24077109.989 3


  27425416.374 6 144121487.43106
                  27425429.582 6 107623214.96306  27425426.908 6 116981754.02406
  27425426.727 6 110430769.92106  27425428.117 7 109026995.51407
  25221814.304 7 132541848.54707
                  25221818.412 7  98976263.33207  25221817.673 7 107582818.95307
  25221816.525 7 101558227.85007  25221817.454 8 100267243.16308
  24743046.729 6 130025855.50406 101318993.54903  24743060.837 3  24743046.564 3
  24743061.035 6  24743060.445 6  97097443.73706

  28158104.637 6 147971868.97406
                  28158114.862 6 110498518.51906  28158110.522 6 120107064.05606
  28158112.280 6 113381076.06706  28158113.488 7 111939803.86307
  23576577.063 6 123895791.66806  96542222.56704  23576582.030 4  23576576.487 4
  23576582.692 6  23576581.539 7  92519633.64307

  22133697.079 7 116313454.36507  90633933.45106  22133700.854 6  22133696.780 6
  22133701.182 6

  26634354.909 6 139964520.91306
                  26634363.026 6 104519004.61306  26634360.775 6 113607599.15406
  26634360.929 7 107245579.45107  26634361.758 7 105882296.10407
 25  4 11  1  1 45.0000000  0 32G18R20G15E29G05G23R22R21G13G10R08R06
                                E33R23G24G26R07E13E26E15S33S31E07S35
                                G16E21E08G32E31G27G29E23
  20673832.960 8 108642043.64208  84656290.73207  20673834.930 7  20673832.719 7
  20673835.063 8  20673837.941 8  81129004.58408

  22892184.515 5 122414771.79505  95211532.60006
  22892197.234 6

  20831788.413 8 109472286.72108  85303334.99006  20831790.263 6  20831788.118 6
  20831790.618 7

  26774335.785 6 140700455.06706
                  26774346.571 7 105068777.60907  26774344.565 6 114205100.91806
  26774343.867 6 107809668.64506  26774344.886 7 106439118.19907
  25189227.638 6 132370376.84806 103145826.98404  25189234.951 4  25189227.254 4
  25189235.737 5

  20421327.418 8 107315254.52608  83622552.02007  20421329.131 7  20421327.177 7
  20421329.430 8  20421332.143 8  80138299.30808

  20806269.793 8 111065392.18108  86384273.14807
  20806274.734 7

  19677005.937 8 105295905.70108  81896980.21407
  19677012.348 7

  23690126.636 6 124492679.47306  97007406.72103  23690131.492 3  23690126.167 3


  22479336.117 7 118130014.30307  92049558.60606  22479341.503 6  22479335.760 6
  22479342.078 7  22479339.024 7  88214175.34307

  22915752.200 7 122713103.77707  95443688.45106
  22915765.150 6

  19691404.380 6 105077190.96106


  27566373.577 6 144862406.67306
                  27566381.168 6 108176576.52906  27566380.570 6 117583206.80006
  27566378.698 6 110998556.83306  27566379.951 7 109587569.75307
  24546674.019 6 131308177.19506


  24164456.051 6 126985185.65106  98949584.82003  24164465.624 3  24164455.783 3
  24164466.053 6  24164466.342 7  94826704.77407

  24862434.200 6 130652957.11306 101807533.63103  24862445.952 3  24862433.753 3
  24862445.841 6  24862445.390 7  97565547.24807

  19402410.533 8 103863102.96908  80782664.04808
  19402417.577 8

  24312014.139 7 127760578.43307
                  24312020.167 8  95405696.83908  24312017.468 7 103701813.05707
  24312017.936 8  97894525.54308  24312018.974 8  96650111.26508
  24197199.839 7 127157469.96107
                  24197202.918 8  94955461.30208  24197203.899 8 103212387.13308
  24197201.115 8  97432531.09408  24197201.976 8  96194001.77108
  28110599.387 6 147722086.87306
                  28110613.247 6 110311937.47406  28110608.795 6 119904283.55906
  28110610.588 6 113189635.23406  28110611.784 7 111750786.43207
  37104957.998 7 194987861.01107
                  37104957.048 6 145607827.38406

  36827872.243 7 193531787.94707
                  36827881.832 7 144520545.01007

  23939697.155 7 125804437.80107
                  23939703.212 8  93945181.39008  23939700.679 8 102113762.58708
  23939701.074 8  96395885.70408  23939702.041 8  95170534.62208
  36976334.369 7 194311949.99107
                  36976338.775 6 145103095.02706

  24080288.626 6 126542808.58906  98604813.68903  24080293.242 3  24080287.661 3


  27432648.843 6 144159496.10006
                  27432662.574 6 107651597.94506  27432660.267 6 117012605.14106
  27432659.651 6 110459893.34806  27432661.132 7 109055748.71807
  25225318.833 7 132560265.32907
                  25225323.085 7  98990016.12807  25225322.425 7 107597767.64707
  25225321.126 7 101572339.41207  25225322.048 8 100281175.34308
  24732718.092 6 129971579.59906 101276700.93803  24732731.612 3  24732717.918 3
  24732732.458 6  24732732.135 6  97056913.38506

  28156861.270 6 147965333.08306
                  28156870.965 6 110493637.82906  28156866.788 6 120101758.96506
  28156868.588 6 113376068.07006  28156869.760 7 111934859.52507
  23568012.275 7 123850787.11707  96507154.13604  23568017.781 4  23568011.694 4
  23568018.897 6  23568017.449 7  92486026.40107

  22142801.529 7 116361297.56307  90671213.81706  22142805.068 6  22142801.230 6
  22142805.377 6

  26638655.767 6 139987122.01006
                  26638663.817 6 104535882.01106  26638661.939 6 113625944.15706
  26638661.923 7 107262897.12607  26638662.618 7 105899393.64107
 25  4 11  1  2  0.0000000  0 32G18R20G15E29G05G23R22R21G13G10R08R06
                                E33R23G24G26R07E13E26E15S33S31E07S35
                                G16E21E08G32E31G27G29E23
  20673002.773 8 108637680.55208  84652890.92407  20673004.648 7  20673002.528 7
  20673004.941 8  20673007.649 8  81125746.43608

  22900311.167 5 122458238.22305  95245339.78406
  22900325.857 6

  20836715.035 8 109498177.05408  85323509.27206  20836717.097 6  20836714.736 6
  20836717.269 7

  26765663.153 6 140654880.49106
                  26765673.834 7 105034744.82507  26765672.391 6 114168108.71106
  26765670.929 6 107774748.01906  26765672.125 7 106404641.49707
  25197763.038 6 132415227.90606 103180775.81404  25197769.964 4  25197762.654 4
  25197770.025 5

  20421495.528 8 107316138.92608  83623241.17507  20421497.421 7  20421495.292 7
  20421497.538 8  20421500.433 8  80138959.75608

  20798375.541 8 111023252.17608  86351497.60707
  20798380.423 7

  19678308.884 8 105302879.08008  81902403.94107
  19678315.238 7

  23698587.621 6 124537141.11106  97042052.10703  23698592.200 3  23698587.165 3


  22474405.361 7 118104105.86507  92029370.25706  22474411.231 6  22474404.981 6
  22474411.458 7  22474408.829 7  88194828.18107

  22904398.542 7 122652303.33207  95396399.42206
  22904410.058 6

  19697312.918 6 105108719.78406


  27560841.349 6 144833335.00306
                  27560848.909 6 108154867.25506  27560848.232 6 117559609.72606
  27560846.229 6 110976281.21506  27560847.682 7 109565577.30707
  24536620.410 6 131254393.72806


  24157443.790 6 126948339.89706  98920873.97203  24157453.597 3  24157443.522 3
  24157454.048 6  24157454.880 7  94799190.22807

  24867936.771 6 130681868.41906 101830061.84503  24867947.586 3  24867936.360 3
  24867948.214 6  24867947.103 7  97587136.74807

  19397723.333 8 103838013.76208  80763150.24108
  19397730.615 8

  24313868.424 7 127770321.99807
                  24313874.280 8  95412972.87708  24313871.742 8 103709721.79308
  24313872.112 8  97901991.39408  24313873.114 8  96657482.21008
  24193984.734 7 127140574.16207
                  24193987.779 8  94942844.32108  24193988.769 8 103198673.01408
  24193985.964 8  97419584.96808  24193986.794 8  96181220.21808
  28115631.456 6 147748532.00306
                  28115645.248 6 110331685.43206  28115640.850 6 119925748.75006
  28115642.367 6 113209898.36306  28115644.135 7 111770791.97407
  37104962.014 7 194987881.82107
                  37104961.081 6 145607842.76906

  36827873.593 7 193531788.48407
                  36827881.886 7 144520545.41207

  23935447.909 7 125782108.80407
                  23935454.121 8  93928507.18008  23935451.728 8 102095638.43208
  23935451.933 8  96378776.50208  23935452.958 8  95153642.91608
  36976343.496 7 194312002.46907
                  36976348.725 6 145103134.19606

  24083487.196 6 126559616.39406  98617910.66603  24083491.655 3  24083486.244 3


  27439880.559 6 144197496.25406
                  27439893.814 6 107679974.56006  27439890.775 6 117043449.32106
  27439891.179 6 110489010.24306  27439892.475 7 109084495.47907
  25228841.853 7 132578779.43907
                  25228846.117 7  99003841.59807  25228845.421 7 107612795.33607
  25228844.182 7 101586525.54707  25228845.154 8 100295181.14508
  24722391.095 6 129917313.06406 101234415.63803  24722405.048 3  24722390.921 3
  24722406.044 6  24722405.184 6  97016390.04006

  28155636.296 6 147958895.58206
                  28155645.692 6 110488830.63506  28155641.864 6 120096533.74106
  28155643.470 6 113371135.45206  28155644.719 6 111929989.61806
  23559463.155 7 123805861.57507  96472147.26904  23559469.121 4  23559462.561 4
  23559469.515 6  23559468.321 7  92452478.15107

  22151921.358 7 116409222.06107  90708557.54006  22151924.764 6  22151921.041 6
  22151925.278 6

  26642969.924 6 140009792.89606
                  26642977.983 6 104552811.54406  26642975.804 6 113644345.85506
  26642975.926 7 107280268.31107  26642976.795 7 105916543.99907
 25  4 11  1  2 15.0000000  0 32G18R20G15E29G05G23R22R21G13G10R08R06
                                E33R23G24G26R07E13E26E15S33S31E07S35
                                G16E21E08G32E31G27G29E23
  20672184.490 8 108633380.57308  84649540.29007  20672186.364 7  20672184.245 7
  20672186.729 8  20672189.355 8  81122535.41208

  22908454.664 5 122501781.78805  95279206.90206
  22908468.769 6

  20841668.007 8 109524205.25408  85343790.97906  20841670.072 6  20841667.694 6
  20841670.431 7

  26756992.492 6 140609317.37606
                  26757003.324 7 105000720.60807  26757001.641 6 114131125.79406
  26757000.896 7 107739836.19407  26757001.604 7 106370173.47507
  25206293.299 6 132460056.57006 103215707.18604  25206300.684 4  25206292.906 4
  25206300.972 5

  20421676.737 8 107317090.50108  83623982.67007  20421678.513 7  20421676.505 7
  20421678.542 8  20421681.512 8  80139670.35208

  20790489.380 8 110981154.23508  86318754.78607
  20790494.276 7

  19679636.162 8 105309980.49708  81907927.26208
  19679642.924 8

  23707065.365 6 124581693.99906  97076768.61503  23707070.200 3  23707064.909 3


  22469486.871 7 118078255.81907  92009227.40706  22469492.178 6  22469486.505 6
  22469491.989 7  22469489.614 7  88175524.62607

  22893056.212 7 122591563.92607  95349157.90106
  22893067.850 6

  19703248.929 6 105140393.30906


  27555305.958 6 144804245.92306
                  27555313.378 6 108133144.96006  27555312.814 6 117535998.51106
  27555310.970 6 110953992.24806  27555312.162 7 109543571.67707
  24526557.427 6 131200568.81406


  24150439.032 6 126911527.79906  98892189.34703  24150448.599 3  24150438.769 3
  24150448.766 6  24150449.409 7  94771700.83407

  24873444.396 6 130710814.70906 101852617.30303  24873455.816 3  24873443.954 3
  24873456.221 6  24873455.316 7  97608752.37707

  19393069.046 8 103813096.81708  80743770.42108
  19393075.710 8

  24315727.901 7 127780093.71607
                  24315733.803 8  95420269.93808  24315731.366 7 103717653.38107
  24315731.675 8  97909478.80608  24315732.612 8  96664874.44608
  24190771.164 7 127123687.64307
                  24190774.389 8  94930234.27008  24190775.570 8 103184966.43708
  24190772.622 8  97406645.96208  24190773.392 8  96168445.68908
  28120668.306 6 147774997.59606
                  28120681.951 6 110351448.71006  28120677.376 6 119947230.55306
  28120679.462 6 113230177.19306  28120680.362 7 111790813.03307
  37104965.421 7 194987901.68407
                  37104964.864 6 145607857.67506

  36827872.404 7 193531787.80507
                  36827881.823 7 144520544.92007

  23931215.880 7 125759870.42207
                  23931222.293 8  93911900.63308  23931219.839 8 102077587.82008
  23931220.096 8  96361736.74408  23931221.104 8  95136819.76308
  36976353.186 7 194312054.08007
                  36976358.611 6 145103172.72506

  24086705.649 6 126576528.82606  98631089.15603  24086710.311 3  24086704.715 3


  27447109.762 6 144235484.26306
                  27447122.968 6 107708342.12306  27447119.727 6 117074283.64406
  27447120.546 6 110518117.82706  27447121.523 7 109113233.04807
  25232382.956 7 132597387.39807
                  25232387.143 7  99017737.13807  25232386.681 7 107627899.19107
  25232385.193 7 101600783.58507  25232386.103 8 100309257.93508
  24712065.686 6 129863052.86306 101192135.26703  24712079.638 3  24712065.499 3
  24712079.929 6  24712079.308 6  96975871.43506

  28154429.167 6 147952553.12206
                  28154438.858 6 110484094.40406  28154435.083 6 120091385.64706
  28154436.525 6 113366275.66606  28154437.765 7 111925191.60807
  23550928.000 6 123761012.01606  96437199.61904  23550934.667 4  23550927.410 4
  23550934.783 6  23550933.947 7  92418986.67507

  22161055.907 7 116457224.25607  90745961.80205  22161059.305 5  22161055.586 5
  22161060.138 7

  26647296.466 6 140032530.05906
                  26647304.749 6 104569790.55706  26647302.547 6 113662801.32506
  26647302.885 7 107297690.26807  26647303.564 7 105933744.48307
 25  4 11  1  2 30.0000000  0 32G18R20G15E29G05G23R22R21G13G10R08R06
                                E33R23G24G26R07E13E26E15S33S31E07S35
                                G16E21E08G32E31G27G29E23
  20671378.742 8 108629146.58908  84646241.08807  20671380.658 7  20671378.497 7
  20671380.727 8  20671383.659 8  81119373.67808

  22916613.873 5 122545405.12705  95313136.10507
  22916627.494 7

  20846647.638 8 109550373.88208  85364182.11306  20846649.805 6  20846647.321 6
  20846650.238 7

  26748324.829 6 140563768.72906
                  26748335.503 7 104966707.18507  26748333.948 6 114094154.61506
  26748332.531 6 107704935.45206  26748333.820 7 106335716.39307
  25214819.561 6 132504865.62506 103250623.29504  25214827.317 4  25214819.181 4
  25214827.382 5

  20421871.180 7 107318111.83707  83624778.52707  20421872.840 7  20421870.952 7
  20421872.856 8  20421875.851 8  80140433.04908

  20782611.516 8 110939101.46508  86286047.10107
  20782616.651 7

  19680987.544 8 105317212.90208  81913552.46508
  19680994.380 8

  23715561.422 6 124626340.67206  97111558.18504  23715566.314 4  23715560.971 4


  22464579.217 7 118052466.85807  91989132.15206  22464584.671 6  22464578.842 6
  22464584.554 7  22464582.080 7  88156266.68507

  22881723.400 7 122530888.92507  95301966.50706
  22881736.845 6

  19709211.819 6 105172213.58006


  27549767.215 6 144775142.17906
                  27549774.854 6 108111411.73506  27549773.935 6 117512375.39706
  27549772.606 6 110931692.05106  27549773.785 7 109521554.96707
  24516489.836 6 131146705.58706


  24143439.785 6 126874752.54906  98863533.42603  24143449.924 3  24143439.513 3
  24143451.185 6  24143451.113 7  94744238.93407

  24878960.033 5 130739798.43305 101875201.92303  24878971.272 3  24878959.622 3
  24878971.566 6  24878971.174 7  97630395.95607

  19388446.696 8 103788355.25108  80724527.01208
  19388454.006 8

  24317593.239 7 127789896.45007
                  24317599.197 8  95427590.16108  24317596.587 7 103725610.14807
  24317596.978 8  97916989.99408  24317598.025 8  96672290.15108
  24187560.283 7 127106813.24607
                  24187563.296 8  94917633.27508  24187564.340 7 103171269.69207
  24187561.528 8  97393716.24108  24187562.289 8  96155680.33108
  28125708.468 6 147801486.45806
                  28125722.370 6 110371229.35906  28125717.231 6 119968731.24206
  28125719.990 6 113250473.86406  28125720.918 7 111810851.68907
  37104972.549 7 194987924.04507
                  37104969.099 6 145607874.51406

  36827872.368 7 193531789.35907
                  36827881.962 7 144520546.09807

  23927001.811 7 125737725.57307
                  23927008.156 8  93895363.92608  23927005.725 8 102059613.12908
  23927006.102 8  96344768.64408  23927007.038 8  95120067.36008
  36976363.998 7 194312107.99807
                  36976368.713 6 145103212.96906

  24089944.317 6 126593548.40006  98644351.15103  24089949.062 3  24089943.374 3


  27454336.910 6 144273462.67206
                  27454349.995 6 107736702.50806  27454347.595 6 117105110.21906
  27454346.832 6 110547218.07106  27454348.484 7 109141963.36107
  25235942.128 7 132616091.83207
                  25235946.502 7  99031704.74407  25235945.678 7 107643081.36707
  25235944.538 7 101615115.55807  25235945.447 8 100323407.72408
  24701742.267 6 129808802.04206 101149862.20503  24701755.645 3  24701742.107 3
  24701755.702 6  24701755.794 6  96935359.80706

  28153240.824 6 147946308.53606
                  28153250.453 6 110479431.23206  28153246.851 6 120086316.98506
  28153248.120 6 113361490.85606  28153249.481 7 111920467.61407
  23542409.059 6 123716241.57506  96402313.61004  23542414.840 4  23542408.474 4
  23542415.460 6  23542414.127 7  92385554.26007

  22170205.881 7 116505306.57207  90783428.49505  22170209.112 5  22170205.568 5
  22170209.329 6

  26651636.158 6 140055336.08306
                  26651644.464 6 104586820.99206  26651642.409 6 113681312.65906
  26651642.637 7 107315164.96507  26651643.457 7 105950997.05107
 25  4 11  1  2 45.0000000  0 32G18R20G15E29G05G23R22R21G13G10R08R06
                                E33R23G24G26R07E13E26E15S33S31E07S35
                                G16E21E08G32E31G27G29E23
  20670585.372 7 108624977.50107  84642992.45207  20670587.285 7  20670585.127 7
  20670587.531 8  20670590.342 8  81116260.40308

  22924783.771 5 122589107.15205  95347126.51707
  22924799.212 7

  20851654.146 8 109576681.25308  85384681.36006  20851656.001 6  20851653.838 6
  20851656.324 7

  26739659.430 6 140518233.51206
                  26739670.298 7 104932703.78107  26739668.863 6 114057194.32506
  26739667.486 7 107670044.98107  26739668.576 7 106301269.45607
  25223343.162 6 132549653.70006 103285523.06204  25223350.064 4  25223342.800 4
  25223351.440 5

  20422078.465 8 107319201.53708  83625627.65507  20422080.234 7  20422078.242 7
  20422080.213 8  20422083.201 8  80141246.80108

  20774741.795 8 110897092.98308  86253373.87907
  20774746.934 7

  19682363.147 8 105324575.15608  81919278.66507
  19682369.828 7

  23724074.912 6 124671079.38406  97146419.48003  23724079.621 3  23724074.474 3


  22459682.905 7 118026737.70207  91969083.49806  22459688.606 6  22459682.521 6
  22459688.210 7  22459685.957 7  88137053.40507

  22870405.430 7 122470277.44807  95254824.45306
  22870417.550 6

  19715202.221 6 105204178.96906


  27544225.943 6 144746022.49806
                  27544233.419 6 108089666.57806  27544233.292 6 117488739.34306
  27544231.359 6 110909379.63606  27544232.456 7 109499526.18107
  24506413.336 6 131092802.97406


  24136449.258 6 126838013.25006  98834905.52503  24136458.547 3  24136448.963 3
  24136459.592 6  24136459.294 7  94716803.89207

  24884482.363 6 130768817.93606 101897814.44403  24884493.524 3  24884481.970 3
  24884494.004 6  24884493.302 7  97652066.28907

  19383857.640 8 103763787.75008  80705418.98908
  19383864.586 8

  24319464.332 7 127799728.98407
                  24319470.266 8  95434932.63608  24319467.585 7 103733591.10107
  24319468.018 8  97924524.00908  24319469.082 8  96679728.39608
  24184351.239 7 127089949.75407
                  24184354.258 8  94905040.41408  24184355.298 8 103157581.80208
  24184352.447 8  97380794.86808  24184353.264 8  96142923.21408
  28130753.095 6 147827997.38106
                  28130767.372 6 110391026.46206  28130762.412 6 119990249.87706
  28130764.384 6 113270787.40906  28130765.923 7 111830907.00807
  37104975.465 7 194987946.55507
                  37104973.360 6 145607891.18206

  36827873.330 7 193531791.89107
                  36827882.494 7 144520548.18807

  23922805.522 7 125715673.09107
                  23922811.676 8  93878896.20408  23922809.331 8 102041713.41808
  23922809.600 8  96327871.32408  23922810.563 8  95103384.83808
  36976375.606 7 194312162.11107
                  36976379.091 6 145103253.38806

  24093203.121 6 126610673.66006  98657695.50403  24093207.766 3  24093202.165 3


  27461561.690 6 144311429.94606
                  27461575.065 6 107765054.58406  27461572.534 6 117135927.73706
  27461572.252 6 110576309.78106  27461573.593 7 109170685.25407
  25239519.756 7 132634891.32007
                  25239523.845 7  99045743.32207  25239523.143 7 107658340.68207
  25239522.002 8 101629520.35708  25239522.857 8 100337629.41208
  24691420.318 6 129754559.62306 101107595.65603  24691433.106 3  24691420.207 3
  24691433.916 6  24691433.162 6  96894854.44806

  28152070.581 6 147940160.46206
                  28152080.726 6 110474840.15306  28152076.508 6 120081326.69106
  28152078.084 6 113356780.00706  28152079.562 7 111915816.64907
  23533903.983 6 123671549.27106  96367488.48504  23533910.230 4  23533903.402 4
  23533910.396 6  23533909.287 7  92352180.19807

  22179370.572 7 116553467.44007  90820956.39405  22179373.922 5  22179370.242 5
  22179374.620 6

  26655988.992 6 140078209.38906
                  26655997.378 6 104603901.67006  26655995.382 6 113699878.64206
  26655995.307 7 107332691.24807  26655996.116 7 105968300.53207
 25  4 11  1  3  0.0000000  0 32G18R20G15E29G05G23R22R21G13G10R08R06
                                E33R23G24G26R07E13E26E15S33S31E07S35
                                G16E21E08G32E31G27G29E23
  20669803.031 7 108620865.47307  84639788.27907  20669804.809 7  20669802.786 7
  20669805.231 8  20669807.870 8  81113189.73908

  22932972.065 5 122632879.45905  95381171.55107
  22932984.790 7

  20856685.082 8 109603119.14908  85405282.30906  20856686.921 6  20856684.783 6
  20856687.009 7

  26730995.524 6 140472703.90306
                  26731006.403 7 104898704.57207  26731004.583 6 114020238.60006
  26731003.362 7 107635158.80707  26731004.481 7 106266826.76507
  25231860.564 6 132594412.50606 103320400.02804  25231867.267 4  25231860.211 4
  25231868.041 5

  20422297.167 8 107320351.47808  83626523.72907  20422299.013 7  20422296.948 7
  20422299.192 8  20422301.996 8  80142105.53908

  20766878.736 8 110855121.04308  86220729.04207
  20766884.132 7

  19683761.757 8 105332059.29808  81925099.65007
  19683768.785 7

  23732604.933 6 124715901.81506  97181345.99303  23732609.130 3  23732604.504 3


  22454796.606 7 118001060.27707  91949075.15706  22454802.317 6  22454796.235 6
  22454802.103 7  22454799.674 7  88117878.76007

  22859096.341 7 122409721.41107  95207725.58406
  22859109.146 6

  19721217.674 6 105236280.92806


  27538680.341 6 144716878.92906
                  27538687.617 6 108067903.59506  27538686.801 6 117465083.88806
  27538685.384 6 110887048.90406  27538686.603 7 109477479.32207
  24496326.276 6 131038852.77906


  24129463.831 6 126801302.33206  98806299.74203  24129472.737 3  24129463.523 3
  24129473.399 6  24129473.660 7  94689390.04407

  24890009.670 6 130797864.93306 101920448.38403  24890021.134 3  24890009.295 3
  24890021.260 5  24890020.775 7  97673757.12107

  19379298.288 8 103739386.50408  80686440.27508
  19379306.119 8

  24321339.649 7 127809583.43607
                  24321345.528 8  95442291.47008  24321342.919 8 103741589.83508
  24321343.320 8  97932074.82108  24321344.328 8  96687183.22008
  24181142.629 7 127073089.28507
                  24181145.788 8  94892449.80908  24181146.747 8 103143896.35908
  24181143.982 8  97367875.81808  24181144.822 8  96130168.38608
  28135800.858 6 147854522.38006
                  28135814.757 6 110410834.08506  28135809.842 6 120011779.87906
  28135811.825 6 113291111.76006  28135813.343 7 111850972.99907
  37104977.334 7 194987961.78907
                  37104976.137 6 145607902.60106

  36827873.146 7 193531786.52307
                  36827881.541 7 144520544.02207

  23918625.324 7 125693705.12907
                  23918631.240 8  93862491.59608  23918628.934 8 102023882.30308
  23918629.207 8  96311038.76108  23918630.173 8  95086766.25308
  36976384.523 7 194312209.15907
                  36976387.981 6 145103288.45306

  24096481.535 6 126627896.30406  98671115.73403  24096485.144 3  24096480.596 3


  27468783.046 6 144349377.90506
                  27468796.290 6 107793392.22706  27468793.071 6 117166729.56606
  27468793.349 6 110605386.67406  27468794.905 7 109199392.52007
  25243113.544 7 132653777.75007
                  25243117.858 7  99059846.82307  25243117.239 7 107673670.57707
  25243115.949 8 101643991.77508  25243116.825 8 100351916.87208
  24681097.567 6 129700317.88706 101065329.69203  24681111.492 3  24681097.460 3
  24681111.562 6  24681111.172 6  96854349.64006

  28150918.071 6 147934100.97506
                  28150927.724 6 110470315.22206  28150923.179 6 120076408.26406
  28150925.338 6 113352137.03506  28150926.442 7 111911232.69707
  23525413.121 6 123626927.47306  96332718.30504  23525418.820 4  23525412.522 4
  23525419.559 6  23525418.179 7  92318858.78207

  22188548.392 7 116601698.62607  90858539.09105  22188552.097 5  22188548.062 5
  22188552.880 6

  26660352.567 6 140101141.83206
                  26660361.208 6 104621026.51206  26660359.317 6 113718492.59706
  26660359.377 7 107350262.81307  26660360.067 7 105985648.73507
 25  4 11  1  3 15.0000000  0 32G18R20G15E29G05G23R22R21G13G10R08R06
                                E33R23G24G26R07E13E26E15S33S31E07S35
                                G16E21E08G32E31G27G29E23
  20669034.290 8 108616826.06508  84636640.69307  20669036.133 7  20669034.045 7
  20669036.366 8  20669039.156 8  81110173.30408

  22941171.304 5 122676737.55505  95415283.32607
  22941186.441 7

  20861743.847 8 109629702.76408  85425996.80906  20861745.627 6  20861743.543 6
  20861745.883 7

  26722335.011 6 140427195.54206
                  26722345.855 7 104864721.23807  26722344.639 6 113983300.14206
  26722343.121 7 107600288.93107  26722344.330 7 106232400.16207
  25240375.385 6 132639157.68306 103355266.35104  25240382.354 4  25240375.023 4
  25240383.070 5

  20422530.405 8 107321576.91108  83627478.62406  20422532.177 6  20422530.177 6
  20422532.208 8  20422535.186 8  80143020.64808

  20759026.169 8 110813201.60608  86188125.07507
  20759031.334 7

  19685186.324 8 105339681.22808  81931027.80307
  19685192.822 7

  23741152.819 6 124760823.08306  97216349.53603  23741157.307 3  23741152.399 3


  22449923.105 7 117975449.97407  91929119.12606  22449928.825 6  22449922.734 6
  22449928.756 7  22449926.148 7  88098754.23007

  22847801.743 7 122349237.38407  95160682.66606
  22847813.710 6

  19727261.728 6 105268534.62106


  27533133.098 6 144687726.77006
                  27533140.099 6 108046134.21106  27533139.412 6 117441421.48506
  27533137.691 6 110864711.62506  27533139.067 7 109455425.99307
  24486234.699 6 130984871.05006


  24122485.530 6 126764635.59106  98777728.36703  24122495.038 3  24122485.200 3
  24122495.752 6  24122496.294 7  94662009.19107

  24895545.374 6 130826954.43606 101943115.43603  24895556.708 3  24895544.990 3
  24895557.445 5  24895556.519 7  97695479.70307

  19374774.715 8 103715167.14808  80667603.01708
  19374781.662 8

  24323221.942 7 127819475.32107
                  24323227.838 8  95449678.27208  24323225.364 7 103749618.97107
  24323225.684 8  97939654.31708  24323226.694 8  96694666.36808
  24177937.703 7 127056247.29807
                  24177940.856 8  94879873.01708  24177941.892 8 103130225.92708
  24177938.979 8  97354970.93008  24177939.867 8  96117427.54608
  28140854.078 6 147881076.92606
                  28140867.865 6 110430663.78406  28140863.144 6 120033333.91106
  28140865.132 6 113311458.75906  28140866.518 7 111871061.35007
  37104979.963 7 194987985.37707
                  37104980.595 6 145607920.40606

  36827873.245 7 193531789.68707
                  36827881.926 7 144520546.38007

  23914463.986 7 125671837.25007
                  23914469.899 8  93846161.71908  23914467.440 8 102006132.42708
  23914467.863 8  96294282.88208  23914468.832 8  95070223.37508
  36976394.070 7 194312264.49807
                  36976398.445 6 145103330.00206

  24099779.568 6 126645231.38306  98684623.56303  24099783.699 3  24099778.625 3


  27476003.545 6 144387321.65006
                  27476017.040 6 107821726.72806  27476014.370 6 117197527.99106
  27476013.944 6 110634460.36506  27476015.516 7 109228096.62107
  25246727.081 7 132672766.37507
                  25246731.271 7  99074026.63507  25246730.724 7 107689083.42407
  25246729.374 8 101658541.49408  25246730.232 8 100366281.63708
  24670778.871 6 129646092.58306 101023076.50703  24670792.011 3  24670778.751 3
  24670792.943 5  24670791.892 6  96813857.05606

  28149784.304 6 147928145.44806
                  28149794.232 6 110465867.95306  28149790.127 6 120071574.27106
  28149791.918 6 113347573.74206  28149793.029 7 111906727.41607
  23516937.938 6 123582391.91606  96298015.32004  23516944.027 4  23516937.326 4
  23516944.330 7  23516943.137 7  92285601.76707

  22197742.771 7 116650015.15007  90896188.28505  22197746.629 5  22197742.427 5
  22197746.865 6

  26664730.956 6 140124148.56706
                  26664739.305 6 104638206.83306  26664736.957 6 113737166.88606
  26664737.213 7 107367891.31707  26664738.125 7 106003053.14707
 25  4 11  1  3 30.0000000  0 32G18R20G15E29G05G23R22R21G13G10R08R06
                                E33R23G24G26R07E13E26E15S33S31E07S35
                                G16E21E08G32E31G27G29E23
  20668277.150 8 108612847.51308  84633540.52807  20668279.069 7  20668276.909 7
  20668279.398 8  20668282.077 8  81107202.30608

  22949388.263 5 122720669.65105  95449452.66506
  22949401.755 6

  20866827.673 8 109656419.98808  85446815.41906  20866829.773 6  20866827.374 6
  20866830.112 7

  26713676.958 6 140381696.72706
                  26713687.983 7 104830745.03107  26713686.287 6 113946369.40006
  26713684.940 7 107565426.37307  26713686.016 7 106197980.77607
  25248885.369 6 132683876.98606 103390112.52304  25248892.397 4  25248885.016 4
  25248892.661 5

  20422775.441 8 107322865.74508  83628482.92106  20422777.441 6  20422775.213 6
  20422777.624 8  20422780.440 8  80143983.10208

  20751180.620 8 110771322.91608  86155552.79407
  20751185.856 7

  19686634.001 8 105347428.88908  81937053.77007
  19686640.692 7

  23749717.643 6 124805830.74706  97251420.41503  23749721.761 3  23749717.214 3


  22445060.172 7 117949894.78407  91909206.02906  22445065.743 6  22445059.810 6
  22445065.595 7  22445063.209 8  88079670.85708

  22836519.640 7 122288813.27507  95113686.36406
  22836530.273 6

  19733332.519 6 105300927.75806


  27527581.390 6 144658554.20406
                  27527588.814 6 108024349.57506  27527588.158 6 117417742.50406
  27527586.505 6 110842358.68106  27527587.696 7 109433357.20407
  24476136.770 6 130930845.90906


  24115514.202 6 126728001.53506  98749182.48103  24115524.431 3  24115513.863 3
  24115523.904 6  24115524.758 7  94634652.73107

  24901086.793 5 130856074.18805 101965806.06803  24901097.710 3  24901086.387 3
  24901098.293 5  24901097.932 7  97717224.89207

  19370281.804 8 103691117.55108  80648897.80208
  19370288.900 8

  24325109.132 7 127829392.78807
                  24325115.075 8  95457084.17108  24325112.438 8 103757668.85308
  24325112.924 8  97947253.41508  24325113.942 8  96702168.86608
  24174733.994 7 127039411.94707
                  24174737.193 8  94867301.17008  24174738.394 8 103116560.87608
  24174735.336 8  97342071.12408  24174736.204 8  96104691.72008
  28145910.230 6 147907649.12906
                  28145924.535 6 110450506.68506  28145920.017 6 120054902.25506
  28145921.582 6 113331819.28306  28145923.056 7 111891163.06007
