     2.11           OBSERVATION DATA    M                   RINEX VERSION / TYPE
ssrcrin-13.7.0x                         11-APR-25 03:00     PGM / RUN BY / DATE 
(000000000000583293750002) Septentrio proprietary           COMMENT             
SEPT                                                        MARKER NAME         
Unknown                                                     MARKER NUMBER       
Unknown             Unknown                                 OBSERVER / AGENCY   
3083514             SEPT POLARX5E       5.4.0               REC # / TYPE / VERS 
Unknown             Unknown                                 ANT # / TYPE        
 -1908062.8814 -5042726.7856  3400841.7551                  APPROX POSITION XYZ 
        0.0000        0.0000        0.0000                  ANTENNA: DELTA H/E/N
     1     1                                                WAVELENGTH FACT L1/2
    14    C1    L1    L2    P2    P1    C2    C5    L5    C6# / TYPES OF OBSERV 
          L6    C7    L7    C8    L8                        # / TYPES OF OBSERV 
For GPS, L2 corresponds to the L2P carrier phase.           COMMENT             
For GLONASS, L2 corresponds to the L2CA carrier phase.      COMMENT             
  2025     4    11     3     0    0.0000000     GPS         TIME OF FIRST OBS   
                                                            END OF HEADER       
 25  4 11  3  0  0.0000000  0 29G18E19G15E29G23R22R21G10R08R06E33R23
                                G24R01R07E13E26G28G08S33S31E07S35R09
                                E08G32G27R16G02
  22058164.812 7 115916747.33807  90324888.80405  22058167.297 5  22058164.549 5
  22058167.257 7  22058170.212 8  86561410.57108

  26348462.587 5 138462239.20205
                  26348470.897 6 103397253.83806  26348469.105 5 112388281.88905
  26348467.984 6 106094518.58106  26348468.651 6 104745903.78106
  25021589.079 6 131489820.18406 102459850.09705  25021591.974 5  25021588.847 5
  25021592.507 5

  23587882.090 7 123955637.80907
                  23587885.017 8  92564563.02208  23587885.995 8 100613551.23608
  23587883.229 8  94979253.42608  23587883.924 8  93771803.29808
  21524887.096 8 113114505.45108  88141450.29706  21524888.190 6  21524886.891 6
  21524888.629 7  21524891.257 8  84468910.46708

  19231572.492 8 102659574.64608  79846420.56008
  19231576.678 8

  23016320.273 7 123165198.35807  95795304.62507
  23016330.944 7

  21168897.591 8 111243655.56608  86683575.17807  21168900.516 7  21168897.261 7
  21168900.745 7  21168897.494 8  83071776.68208

  19730424.621 8 105655946.58308  82177042.41508
  19730430.093 8

  24043850.781 5 128302646.57805


  24739746.108 7 130008442.28907
                  24739748.689 7  97084349.15207  24739749.538 7 105526430.83407
  24739746.925 7  99616964.80107  24739747.755 8  98350660.05008
  19911626.731 8 106513886.10408


  22795562.411 7 119791692.17207  93344287.20705  22795567.242 5  22795562.148 5
  22795567.500 7  22795566.647 7  89454966.14007

  23236418.374 6 124212077.22206


  20434523.104 8 109388098.36708  85079886.75108
  20434529.243 8

  26070784.907 6 137002964.36406
                  26070791.847 7 102307473.61007  26070789.375 7 111203746.19107
  26070789.850 7 104976349.23107  26070790.846 7 103641911.49407
  23264786.803 8 122257626.16408
                  23264788.604 8  91296492.67408  23264790.222 8  99235245.19308
  23264786.771 8  93678110.44308  23264787.630 8  92487307.13208
  24888103.011 6 130788073.66606 101912902.24503  24888110.619 3  24888102.698 3
  24888110.715 6  24888114.682 6  97666589.94806

  23335262.808 7 122627689.51807  95554092.09204  23335267.418 4  23335262.241 4
  23335268.513 6  23335266.078 7  91572670.97607

  37105927.545 7 194992976.40207
                  37105925.422 6 145611628.97906

  36827388.150 7 193529266.15507
                  36827397.273 7 144518624.21307

  24012462.554 8 126186847.97008
                  24012466.700 8  94230754.94208  24012464.980 8 102424165.78108
  24012464.722 8  96688908.12408  24012465.636 8  95459832.60708
  36980837.503 7 194335620.80507
                  36980837.670 6 145120757.24406

  24307109.624 6 129798605.56306 100954525.77106
  24307118.574 6

  28285682.789 6 148642575.66906
                  28285687.687 6 110999530.38006  28285686.427 6 120651588.70506
  28285685.681 6 113895145.70606  28285686.732 7 112447335.61907
  20927135.277 8 109973286.09008  85693660.00907  20927138.775 7  20927135.130 7
  20927139.433 7  20927136.404 8  82123175.51808

  22005168.828 7 115638024.75107  90107607.72706  22005172.754 6  22005168.278 6
  22005173.386 7  22005171.920 8  86353129.52308

  24551936.559 6 131152039.25406 102007169.46806
  24551942.658 6

  25311214.628 6 133011354.91106 103645222.67703  25311216.174 3  25311213.591 3


 25  4 11  3  0 15.0000000  0 29G18E19G15E29G23R22R21G10R08R06E33R23
                                G24R01R07E13E26G28G08S33S31E07S35R09
                                E08G32G27R16G02
  22065317.799 7 115954336.05807  90354178.69705  22065320.190 5  22065317.545 5
  22065320.342 7  22065323.155 8  86589480.05408

  26340637.217 5 138421113.45005
                  26340644.495 6 103366543.14806  26340642.203 5 112354900.65005
  26340641.449 6 106063006.73006  26340642.694 6 104714792.51306
  25032059.920 6 131544843.01906 102502725.10405  25032062.591 5  25032059.679 5
  25032062.611 5

  23584210.182 7 123936341.42307
                  23584212.999 8  92550153.42208  23584213.956 8 100597888.61608
  23584211.237 8  94964467.92608  23584211.926 8  93757205.74708
  21528763.862 7 113134878.22007  88157325.18106  21528765.055 6  21528763.648 6
  21528765.512 7  21528768.078 8  84484123.89608

  19235088.733 8 102678343.38308  79861018.45907
  19235092.827 7

  23028042.717 7 123227928.00107  95844094.28006
  23028052.840 6

  21167776.343 8 111237763.98508  86678984.35507  21167779.368 7  21167776.017 7
  21167779.305 7  21167776.389 8  83067377.14808

  19729233.009 8 105649564.47408  82172078.57708
  19729238.348 8

  24053618.624 5 128354785.13805


  24733970.752 7 129978093.24307
                  24733973.482 7  97061685.94007  24733974.200 7 105501796.88607
  24733971.677 7  99593710.36607  24733972.502 8  98327701.22708
  19904904.354 8 106477924.07308


  22798661.128 7 119807974.25207  93356974.55405  22798665.388 5  22798660.883 5
  22798665.956 7  22798665.070 7  89467124.84907

  23228015.905 6 124167160.56206


  20441622.591 8 109426103.19608  85109446.05807
  20441628.385 7

  26076749.935 6 137034310.07306
                  26076756.868 7 102330881.09607  26076754.107 7 111229189.12407
  26076754.718 7 105000367.34707  26076755.736 7 103665624.29507
  23265013.673 8 122258817.39508
                  23265015.308 8  91297382.24008  23265016.925 8  99236212.11108
  23265013.484 8  93679023.21908  23265014.305 8  92488208.30308
  24878396.214 6 130737065.58006 101873155.80903  24878403.639 3  24878395.884 3
  24878403.782 6  24878408.293 6  97628499.61006

  23332253.218 7 122611874.89807  95541769.03704  23332258.043 4  23332252.651 4
  23332258.970 6  23332256.547 7  91560861.38507

  37105928.354 7 194992979.43707
                  37105926.334 6 145611630.99406

  36827386.169 7 193529255.68407
                  36827395.400 7 144518616.43607

  24016672.309 8 126208971.52508
                  24016676.659 8  94247275.78708  24016674.744 8 102442123.21708
  24016674.648 8  96705859.94308  24016675.610 8  95476568.94008
  36980843.508 7 194335666.37607
                  36980846.372 6 145120791.22906

  24300045.883 6 129760886.11006 100925188.45806
  24300054.804 6

  28293662.538 6 148684510.20106
                  28293667.453 6 111030845.16606  28293666.917 6 120685626.50506
  28293665.733 6 113927277.39406  28293666.544 7 112479058.85407
  20922999.008 8 109951549.47108  85676722.41907  20923002.458 7  20922998.852 7
  20923003.006 7  20923000.044 8  82106943.67208

  22008019.082 7 115653001.12307  90119277.62506  22008022.707 6  22008018.537 6
  22008023.231 7  22008021.852 8  86364313.17208

  24549822.835 6 131140750.93406 101998389.67506
  24549829.052 6

  25302370.210 6 132964873.99806 103609003.84303  25302371.586 3  25302369.160 3


 25  4 11  3  0 30.0000000  0 29G18E19G15E29G23R22R21G10R08R06E33R23
                                G24R01R07E13E26G28G08S33S31E07S35R09
                                E08G32G27R16G02
  22072488.038 7 115992016.06307  90383539.72505  22072490.455 5  22072487.779 5
  22072490.480 7  22072493.499 8  86617617.70908

  26332817.724 5 138380025.19505
                  26332825.607 6 103335860.45506  26332823.365 5 112321549.87305
  26332822.828 6 106031523.61706  26332823.785 6 104683709.60906
  25042528.592 6 131599857.66706 102545593.74405  25042531.438 5  25042528.360 5
  25042531.618 5

  23580554.477 7 123917130.25707
                  23580557.262 8  92535807.44708  23580558.196 8 100582295.15408
  23580555.477 8  94949747.69808  23580556.151 8  93742672.64608
  21532646.094 7 113155280.09807  88173222.74506  21532647.416 6  21532645.884 6
  21532647.823 7  21532650.388 8  84499359.05508

  19238638.579 8 102697293.87308  79875757.71907
  19238642.868 7

  23039777.703 7 123290716.34607  95892929.57206
  23039787.555 6

  21166661.010 8 111231902.02708  86674416.61107  21166663.873 7  21166660.689 7
  21166663.794 7  21166660.861 8  83062999.73108

  19728064.097 8 105643303.35908  82167208.84008
  19728069.415 8

  24063384.315 5 128406891.81105


  24728200.709 7 129947771.83707
                  24728203.490 7  97039043.36107  24728204.294 7 105477185.38507
  24728201.587 7  99570477.11007  24728202.513 8  98304763.31008
  19898208.957 8 106442107.74708


  22801787.911 6 119824406.61206  93369779.00605  22801792.541 5  22801787.670 5
  22801792.931 7  22801791.981 7  89479395.78507

  23219628.408 6 124122314.47006


  20448732.452 8 109464162.13808  85139047.45507
  20448738.331 7

  26082724.871 6 137065708.72706
                  26082731.910 7 102354328.12107  26082728.937 7 111254675.02907
  26082729.600 7 105024426.03907  26082730.713 7 103689377.15407
  23265253.896 8 122260080.17608
                  23265255.605 8  91298325.24208  23265257.207 8  99237237.10508
  23265253.732 8  93679990.81508  23265254.592 8  92489163.60108
  24868684.636 6 130686029.98606 101833387.89303  24868691.185 3  24868684.270 3
  24868692.745 6  24868696.609 6  97590388.72106

  23329268.397 7 122596190.03507  95529547.08904  23329273.360 4  23329267.843 4
  23329274.006 6  23329271.869 7  91549148.69307

  37105927.871 7 194992985.02907
                  37105927.063 6 145611635.18906

  36827384.894 7 193529247.08707
                  36827393.620 7 144518609.83707

  24020895.678 8 126231165.53908
                  24020900.024 8  94263849.24308  24020898.275 8 102460137.84408
  24020898.031 8  96722865.75508  24020898.995 8  95493358.57308
  36980853.592 7 194335713.45107
                  36980855.230 6 145120826.38406

  24292992.846 6 129723220.96706 100895893.41206
  24293002.583 6

  28301643.063 6 148726448.19706
                  28301647.974 6 111062162.55906  28301647.320 6 120719667.12906
  28301646.182 6 113959411.76306  28301646.959 7 112510784.73507
  20918883.976 8 109929923.84808  85659871.31607  20918887.259 7  20918883.820 7
  20918887.873 7  20918884.801 8  82090794.70408

  22010894.057 7 115668108.63107  90131049.71006  22010897.669 6  22010893.516 6
  22010898.153 7  22010896.706 8  86375594.75908

  24547737.225 6 131129612.65706 101989726.64106
  24547745.147 6

  25293524.435 6 132918390.08306 103572782.67904  25293526.345 4  25293523.403 4


 25  4 11  3  0 45.0000000  0 29G18E19G15E29G23R22R21G10R08R06E33R23
                                G24R01R07E13E26G28G08S33S31E07S35R09
                                E08G32G27R16G02
  22079674.957 7 116029784.21107  90412969.43005  22079677.479 5  22079674.698 5
  22079677.594 7  22079680.498 8  86645821.16808

  26325006.001 5 138338971.69405
                  26325013.368 6 103305203.69106  26325011.737 5 112288227.25805
  26325010.563 6 106000067.09906  26325011.476 6 104652652.96706
  25052994.975 6 131654860.89606 102588453.47405  25052998.209 5  25052994.739 5
  25052998.114 5

  23576914.133 7 123898001.28707
                  23576917.099 8  92521522.86408  23576917.997 8 100566768.41608
  23576915.331 8  94935090.47008  23576916.004 8  93728201.74008
  21536533.596 8 113175708.04108  88189140.62306  21536534.701 6  21536533.382 6
  21536535.068 7  21536537.629 8  84514613.69408

  19242222.092 8 102716423.02208  79890635.96507
  19242226.343 7

  23051521.679 7 123353560.04207  95941807.92407
  23051531.755 7

  21165550.530 8 111226066.61008  86669869.55107  21165553.435 7  21165550.217 7
  21165553.371 7  21165550.438 8  83058642.13308

  19726916.742 8 105637160.09308  82162430.76008
  19726921.788 8

  24073142.715 5 128458963.52505


  24722435.616 7 129917475.22607
                  24722438.210 7  97016419.30207  24722439.140 7 105452594.00407
  24722436.344 7  99547262.85907  24722437.219 8  98281844.15508
  19891540.293 8 106406434.62908


  22804942.653 6 119840986.13506  93382698.13305  22804947.607 5  22804942.390 5
  22804947.651 7  22804946.868 7  89491776.61607

  23211249.691 6 124077535.65106


  20455852.159 8 109502271.68908  85168688.21307
  20455857.393 7

  26088709.384 6 137097157.26506
                  26088716.198 7 102377812.39407  26088713.813 7 111280201.42707
  26088714.187 7 105048522.94807  26088715.206 7 103713167.74507
  23265507.153 8 122261411.59408
                  23265508.979 8  91299319.49108  23265510.609 8  99238317.81008
  23265507.102 8  93681011.00208  23265507.946 8  92490170.81908
  24858967.242 6 130634964.14206 101793596.40603  24858973.643 3  24858966.867 3
  24858974.619 6  24858979.093 6  97552255.25406

  23326307.883 7 122580631.98407  95517423.95804  23326312.913 4  23326307.338 4
  23326313.725 6  23326311.255 7  91537530.69707

  37105929.660 7 194992989.10407
                  37105927.667 6 145611638.65506

  36827382.538 7 193529236.62307
                  36827391.478 7 144518602.08607

  24025132.081 8 126253426.81108
                  24025136.204 8  94280472.92708  24025134.229 8 102478207.06408
  24025134.202 8  96739923.09508  24025135.178 8  95510199.08608
  36980863.376 7 194335758.65807
                  36980863.968 6 145120860.30906

  24285948.407 6 129685607.27606 100866638.35306
  24285957.483 6

  28309623.622 6 148768386.42806
                  28309628.512 6 111093480.14406  28309627.764 6 120753707.95906
  28309626.634 6 113991546.31106  28309627.513 7 112542510.80207
  20914789.337 8 109908406.22008  85643104.36507  20914792.576 7  20914789.177 7
  20914792.934 7  20914790.143 8  82074726.38208

  22013793.057 7 115683344.05807  90142921.46606  22013796.850 6  22013792.521 6
  22013797.403 7  22013795.974 8  86386971.86208

  24545680.146 6 131118621.41906 101981177.94006
  24545687.245 6

  25284677.192 6 132871900.37106 103536556.99404  25284679.857 4  25284676.164 4


 25  4 11  3  1  0.0000000  0 30G18E19G15E29G23R22R21G10R08R06E33R23
                                G24R01R07E13E26G28G08S33S31E07S35R09
                                E08G32R24G27R16G02
  22086879.463 7 116067641.90507  90442468.92005  22086881.509 5  22086879.204 5
  22086881.537 7  22086884.648 8  86674091.50408

  26317200.410 5 138297954.38905
                  26317207.794 6 103274573.95806  26317206.205 5 112254934.05705
  26317204.973 6 105968638.32306  26317206.107 6 104621623.71506
  25063459.505 6 131709853.97706 102631305.30404  25063462.812 4  25063459.264 4
  25063463.064 5

  23573289.904 7 123878956.05307
                  23573292.867 8  92507300.80408  23573293.814 8 100551309.64608
  23573291.089 8  94920497.39708  23573291.794 8  93713794.17508
  21540425.749 7 113196163.59007  88205080.01406  21540427.230 6  21540425.517 6
  21540427.712 7  21540430.246 8  84529888.94508

  19245839.422 8 102735732.33308  79905654.30907
  19245843.490 7

  23063275.357 7 123416460.04707  95990730.08006
  23063285.794 6

  21164445.419 8 111220259.26908  86665344.36907  21164448.327 7  21164445.106 7
  21164448.282 7  21164445.277 8  83054305.50508

  19725791.599 8 105631135.75808  82157745.20908
  19725797.309 8

  24082896.892 5 128511001.60105


  24716675.222 7 129887205.12807
                  24716677.872 7  96993815.03107  24716678.708 7 105428024.13407
  24716676.187 7  99524068.91407  24716676.977 8  98258945.04708
  19884898.740 8 106370906.71608


  22808126.166 6 119857714.25406  93395733.04105  22808130.610 5  22808125.907 5
  22808131.276 7  22808130.251 7  89504268.40407

  23202887.162 6 124032826.15606


  20462980.338 8 109540432.65808  85198368.96907
  20462986.194 7

  26094703.708 6 137128657.16306
                  26094710.654 7 102401335.02407  26094707.686 7 111305769.50607
  26094708.587 7 105072659.21507  26094709.466 7 103736997.19407
  23265773.727 8 122262813.25008
                  23265775.621 8  91300366.19908  23265777.340 8  99239455.52808
  23265773.791 8  93682085.01608  23265774.660 8  92491231.18108
  24849244.656 6 130583869.88706 101753782.80703  24849251.240 3  24849244.290 3
  24849251.428 6  24849255.590 6  97514100.55406

  23323371.783 7 122565202.38007  95505400.91504  23323376.783 4  23323371.247 4
  23323377.621 6  23323375.036 7  91526008.61807

  37105929.253 7 194992991.68007
                  37105928.400 6 145611640.28006

  36827379.103 7 193529225.42307
                  36827389.462 7 144518593.62807

  24029381.092 8 126275756.65108
                  24029385.431 8  94297147.81908  24029383.620 8 102496331.94008
  24029383.530 8  96757032.98708  24029384.409 8  95527091.47808
  36980870.978 7 194335803.81807
                  36980872.366 6 145120894.08606

  24278914.669 6 129648047.31206 100837425.10706
  24278924.890 6

  28317604.279 6 148810326.24906
                  28317609.247 6 111124798.91306  28317608.656 6 120787750.06206
  28317607.773 6 114023682.09206  28317608.322 7 112574238.07607
  20910715.461 8 109886998.14208  85626422.78207  20910718.758 7  20910715.309 7
  20910719.254 7  20910716.331 8  82058739.87908

  24772823.305 5 132471430.64615 103033369.01115
  24772836.173 5

  22016717.215 7 115698708.65907  90154893.88206  22016720.598 6  22016716.692 6
  22016721.165 7  22016719.730 8  86398445.42908

  24543650.183 6 131107779.24106 101972745.17906
  24543656.945 6

  25275830.246 6 132825406.57406 103500328.12004  25275832.099 4  25275829.218 4


 25  4 11  3  1 15.0000000  0 30G18E19G15E29G23R22R21G10R08R06E33R23
                                G24R01R07E13E26G28G08S33S31E07S35R09
                                E08G32R24G27R16G02
  22094100.265 7 116105588.94707  90472038.02805  22094102.482 5  22094100.002 5
  22094102.686 7  22094105.806 8  86702428.55908

  26309401.383 5 138256973.39805
                  26309409.442 6 103243971.38606  26309407.434 5 112221670.34005
  26309406.308 6 105937237.40406  26309407.561 6 104590621.97106
  25073922.629 6 131764836.64206 102674149.01905  25073925.649 5  25073922.384 5
  25073925.708 5

  23569681.633 7 123859994.52907
                  23569684.594 8  92493141.26008  23569685.581 8 100535918.82308
  23569682.864 8  94905968.46908  23569683.517 8  93699449.93708
  21544323.706 8 113216646.68608  88221040.86706  21544325.036 6  21544323.478 6
  21544325.416 7  21544328.048 8  84545184.76208

  19249490.221 8 102755221.62608  79920812.63807
  19249494.545 7

  23075040.613 7 123479415.85807  96039695.66206
  23075050.370 6

  21163345.418 8 111214479.91308  86660840.99307  21163348.554 7  21163345.101 7
  21163348.432 7  21163345.507 8  83049989.77008

  19724688.141 8 105625230.06708  82153151.92608
  19724694.192 8

  24092639.262 5 128563005.69005


  24710920.103 7 129856961.62607
                  24710922.645 7  96971230.63507  24710923.556 7 105403475.86107
  24710920.885 7  99500895.34707  24710921.807 8  98236066.06408
  19878283.916 8 106335524.27008


  22811338.119 7 119874590.78407  93408883.59805  22811342.237 5  22811337.878 5
  22811342.505 7  22811341.848 7  89516871.03407

  23194534.634 6 123988185.58606


  20470119.070 8 109578644.77108  85228089.49907
  20470124.325 7

  26100707.531 6 137160208.30806
                  26100714.620 7 102424895.91407  26100711.720 7 111331379.17407
  26100712.329 7 105096834.73907  26100713.464 7 103760865.40107
  23266054.066 8 122264285.22908
                  23266055.778 8  91301465.41208  23266057.268 8  99240650.32208
  23266053.937 8  93683212.90308  23266054.753 8  92492344.73108
  24839515.776 6 130532747.48506 101713947.26203  24839523.033 3  24839515.410 3
  24839523.142 6  24839527.399 6  97475924.84406

  23320459.696 7 122549901.21107  95493477.94604  23320465.086 4  23320459.160 4
  23320465.481 6  23320463.254 7  91514582.45207

  37105930.080 7 194992994.43607
                  37105928.901 6 145611642.31106

  36827378.053 7 193529214.09607
                  36827387.324 7 144518584.95907

  24033643.663 8 126298154.81808
                  24033647.699 8  94313873.72708  24033645.731 8 102514512.27608
  24033645.755 8  96774195.22608  24033646.643 8  95544035.55108
  36980880.726 7 194335848.16607
                  36980880.893 6 145120927.18006

  24271891.076 6 129610541.57406 100808254.05706
  24271900.893 6

  28325585.403 6 148852267.39306
                  28325590.594 6 111156118.63406  28325589.736 6 120821793.22706
  28325588.767 6 114055818.84106  28325589.372 7 112605966.31107
  20906662.392 8 109865699.58108  85609826.53207  20906665.769 7  20906662.240 7
  20906666.494 7  20906663.261 8  82042835.14008

                                 102983776.63205
  24760911.078 5

  22019665.251 7 115714202.18907  90166966.75906  22019668.900 6  22019664.728 6
  22019669.321 7  22019668.144 8  86410015.27108

  24541647.788 6 131097086.05006 101964428.29206
  24541652.881 6

  25266981.772 6 132778908.72106 103464096.07303  25266983.500 3  25266980.757 3


 25  4 11  3  1 30.0000000  0 29G18E19G15E29G23R22R21G10R08R06E33R23
                                G24R01R07E13E26G28G08S33S31E07S35R09
                                E08G32G27R16G02
  22101338.531 7 116143626.67907  90501677.80105  22101340.845 5  22101338.277 5
  22101341.002 7  22101344.048 8  86730833.33908

  26301610.440 5 138216030.30505
                  26301618.151 6 103213397.06706  26301616.270 5 112188437.38005
  26301615.370 6 105905865.50406  26301616.349 6 104559648.86206
  25084383.914 6 131819810.25006 102716985.69404  25084386.867 4  25084383.678 4
  25084387.033 5

  23566089.502 7 123841118.20707
                  23566092.520 8  92479045.33608  23566093.461 8 100520597.15908
  23566090.814 8  94891504.82408  23566091.449 8  93685170.15308
  21548227.126 8 113237158.80008  88237024.33106  21548228.414 6  21548226.894 6
  21548228.587 7  21548231.496 8  84560502.25008

  19253175.120 8 102774892.23108  79936111.99407
  19253179.789 7

  23086814.851 7 123542428.74007  96088705.60406
  23086826.034 6

  21162251.666 8 111208730.02008  86656360.57707  21162254.383 7  21162251.358 7
  21162254.440 7  21162251.322 8  83045696.04508

  19723608.430 8 105619444.68308  82148652.20307
  19723613.472 7

  24102379.844 5 128614977.28005


  24705170.406 7 129826746.41007
                  24705172.956 7  96948667.35007  24705173.869 7 105378950.54507
  24705171.112 7  99477743.45307  24705172.011 8  98213208.47608
  19871697.538 8 106300289.50008


  22814577.474 6 119891617.09806  93422150.87205  22814582.366 5  22814577.224 5
  22814582.466 7  22814581.902 7  89529585.50507

  23186198.191 6 123943615.97206


  20477266.685 8 109616909.29108  85257850.78507
  20477271.998 7

  26106721.280 6 137191812.11306
                  26106728.667 7 102448496.15507  26106725.780 7 111357031.60807
  26106726.546 7 105121050.63707  26106727.492 7 103784773.46907
  23266347.816 8 122265829.08608
                  23266349.547 8  91302618.30608  23266351.152 8  99241903.46708
  23266347.670 8  93684395.86608  23266348.526 8  92493512.65908
  24829783.003 6 130481598.68906 101674091.15603  24829789.607 3  24829782.650 3
  24829789.182 6  24829794.152 6  97437729.43406

  23317572.612 7 122534730.00507  95481656.26004  23317578.086 4  23317572.062 4
  23317578.526 6  23317576.298 7  91503253.33407

  37105930.612 7 194992998.84807
                  37105929.559 6 145611645.95406

  36827377.042 7 193529204.74507
                  36827385.339 7 144518578.32107

  24037919.105 8 126320622.59608
                  24037923.134 8  94330651.61708  24037921.418 8 102532749.10908
  24037921.171 8  96791410.79908  24037922.109 8  95561032.28308
  36980888.918 7 194335893.66707
                  36980889.724 6 145120961.02506

  24264877.719 6 129573092.00506 100779126.63206
  24264887.277 6

  28333567.094 6 148894211.18706
                  28333572.233 6 111187440.36306  28333571.481 6 120855838.54406
  28333570.046 6 114087957.65606  28333570.915 7 112637696.58407
  20902630.437 8 109844512.04008  85593316.79307  20902633.882 7  20902630.281 7
  20902634.542 7  20902631.341 8  82027013.32108

  22022638.222 7 115729825.86707  90179141.05406  22022641.997 6  22022637.699 6
  22022642.148 7  22022641.235 8  86421682.30108

  24539674.934 6 131086543.61706 101956228.66406
  24539681.063 6

  25258133.373 6 132732408.53406 103427862.20603  25258134.557 3  25258132.367 3


 25  4 11  3  1 45.0000000  0 29G18E19G15E29G23R22R21G10R08R06E33R23
                                G24R01R07E13E26G28G08S33S31E07S35R09
                                E08G32G27R16G02
  22108594.236 7 116181755.07607  90531388.22605  22108596.468 5  22108593.982 5
  22108596.744 7  22108599.739 8  86759305.82708

  26293827.175 5 138175125.48005
                  26293834.196 6 103182851.35506  26293832.424 5 112155235.46905
  26293831.179 6 105874522.92206  26293832.323 6 104528704.71106
  25094842.958 6 131874774.45706 102759815.02205  25094845.951 5  25094842.713 5
  25094846.524 5

  23562513.830 8 123822327.22208
                  23562516.604 8  92465013.14108  23562517.643 8 100505344.76208
  23562514.934 8  94877106.57008  23562515.618 8  93670954.92908
  21552136.144 8 113257700.07108  88253030.52006  21552137.359 6  21552135.908 6
  21552137.623 7  21552140.321 8  84575841.51408

  19256894.120 8 102794744.26508  79951552.46707
  19256898.525 7

  23098603.453 7 123605498.19107  96137759.52506
  23098611.282 6

  21161162.914 8 111203009.65908  86651903.16707  21161165.847 7  21161162.606 7
  21161165.856 7  21161162.749 8  83041424.36708

  19722550.333 8 105613779.09208  82144245.66707
  19722555.603 7

  24112114.534 5 128666916.25905


  24699425.979 7 129796559.72907
                  24699428.608 7  96926125.37707  24699429.388 7 105354448.39507
  24699426.765 7  99454613.43307  24699427.653 8  98190372.47908
  19865138.298 8 106265202.91308


  22817846.482 6 119908793.21706  93435534.87505  22817850.554 5  22817846.223 5
  22817851.545 6  22817850.196 7  89542411.83807

  23177873.070 6 123899117.32006


  20484424.910 8 109655225.92608  85287652.62707
  20484430.756 7

  26112745.409 6 137223468.70206
                  26112752.691 7 102472135.77507  26112750.024 7 111382726.86507
  26112750.469 7 105145306.95207  26112751.550 7 103808721.43507
  23266655.415 8 122267445.07608
                  23266657.042 8  91303825.06108  23266658.648 8  99243215.14908
  23266655.140 8  93685634.10208  23266656.039 8  92494735.15408
  24820044.523 6 130430423.98706 101634214.84803  24820050.722 3  24820044.206 3
  24820051.213 6  24820056.076 6  97399514.64206

  23314710.090 7 122519688.98307  95469936.00204  23314715.921 4  23314709.540 4
  23314716.491 6  23314713.969 7  91492021.42807

  37105932.857 7 194993003.59807
                  37105930.659 6 145611649.29106

  36827375.897 7 193529195.55707
                  36827383.720 7 144518571.28407

  24042207.620 8 126343159.89608
                  24042211.814 8  94347481.43508  24042209.952 8 102551042.38608
  24042209.816 8  96808679.65208  24042210.824 8  95578081.61808
  36980899.390 7 194335940.91107
                  36980898.583 6 145120996.43206

  24257875.100 6 129535699.12906 100750043.38806
  24257885.429 6

  28341549.404 6 148936157.59806
                  28341554.360 6 111218764.04906  28341553.229 6 120889886.00006
  28341552.259 6 114120098.45506  28341553.029 7 112669428.82407
  20898619.695 8 109823435.65908  85576893.66807  20898623.167 7  20898619.539 7
  20898623.850 7  20898620.685 8  82011274.49208

  22025635.950 7 115745579.60207  90191416.69106  22025639.862 6  22025635.432 6
  22025639.919 7  22025639.082 8  86433446.45308

  24537729.276 6 131076152.36506 101948146.60006
  24537735.559 6

  25249284.514 6 132685906.31306 103391626.74903  25249285.601 3  25249283.526 3


 25  4 11  3  2  0.0000000  0 29G18E19G15E29G23R22R21G10R08R06E33R23
                                G24R01R07E13E26G28G08S33S31E07S35R09
                                E08G32G27R16G02
  22115866.596 7 116219971.09107  90561166.92405  22115868.704 5  22115866.342 5
  22115868.871 7  22115872.032 8  86787843.74508

  26286049.243 5 138134256.02605
                  26286056.849 6 103152332.06406  26286054.866 5 112122062.27705
  26286054.005 6 105843207.45106  26286055.071 6 104497787.33306
  25105300.205 6 131929726.35106 102802634.75504  25105303.051 4  25105299.960 4
  25105303.213 5

  23558953.666 8 123803618.70608
                  23558956.513 8  92451042.53008  23558957.461 8 100490159.30308
  23558954.824 8  94862771.50308  23558955.482 8  93656802.08908
  21556049.934 7 113278267.59107  88269057.16206  21556051.227 6  21556049.698 6
  21556051.390 7  21556054.185 8  84591200.37408

  19260646.782 8 102814774.70308  79967131.69007
  19260650.868 7

  23110397.387 7 123668621.02207  96186855.00507
  23110408.085 7

  21160079.452 8 111197315.94608  86647466.52607  21160082.364 7  21160079.148 7
  21160082.490 7  21160079.239 8  83037172.58308

  19721513.817 8 105608230.54208  82139930.14807
  19721518.977 7

  24121839.383 5 128718819.57005


  24693686.697 7 129766398.86207
                  24693689.198 7  96903602.68907  24693689.991 7 105329967.19307
  24693687.269 7  99431503.18607  24693688.196 8  98167556.01208
  19858606.320 8 106230261.81408


  22821142.265 6 119926116.09406  93449033.23405  22821146.905 5  22821142.002 5
  22821147.532 7  22821146.614 7  89555347.77407

  23169560.147 6 123854686.74506


  20491592.205 8 109693591.50908  85317492.50807
  20491597.509 7

  26118779.034 6 137255175.07506
                  26118786.137 7 102495812.59007  26118783.481 7 111408462.55307
  26118784.055 7 105169601.42507  26118785.093 7 103832707.08007
  23266975.971 8 122269130.37908
                  23266977.742 8  91305083.57608  23266979.219 8  99244583.10008
  23266975.880 8  93686925.44708  23266976.722 8  92496010.08408
  24810300.845 6 130379220.67706 101594316.26503  24810307.307 3  24810300.541 3
  24810307.825 6  24810311.689 6  97361278.52206

  23311872.695 6 122504775.28906  95458314.96904  23311877.917 4  23311872.150 4
  23311878.146 6  23311875.922 7  91480884.61207

  37105934.051 7 194993007.14007
                  37105931.195 6 145611651.83306

  36827372.436 7 193529185.20807
                  36827381.744 7 144518563.50707

  24046508.851 8 126365763.63808
                  24046513.091 8  94364360.85508  24046511.396 8 102569389.57908
  24046511.157 8  96825999.40508  24046512.154 8  95595181.20408
  36980906.706 7 194335986.22707
                  36980907.347 6 145121030.37206

  24250881.231 6 129498360.20306 100721002.03906
  24250892.503 6

  28349531.196 6 148978103.49506
                  28349536.125 6 111250087.34606  28349535.097 6 120923933.05006
  28349533.920 6 114152238.88706  28349534.987 6 112701160.68506
  20894629.355 8 109802467.55508  85560554.91907  20894633.027 7  20894629.199 7
  20894633.430 7  20894630.590 8  81995616.53008

  22028658.061 7 115761460.23207  90203791.20506  22028661.807 6  22028657.534 6
  22028662.017 7  22028660.984 8  86445305.36708

  24535812.716 6 131065909.38406 101940179.87706
  24535818.068 6

  25240433.851 6 132639399.33306 103355387.60604  25240435.768 4  25240432.854 4


 25  4 11  3  2 15.0000000  0 29G18E19G15E29G23R22R21G10R08R06E33R23
                                G24R01R07E13E26G28G08S33S31E07S35R09
                                E08G32G27R16G02
  22123155.312 7 116258274.94707  90591014.07105  22123157.703 5  22123155.053 5
  22123158.232 7  22123160.972 8  86816447.25208

  26278278.923 5 138093422.40305
                  26278286.449 6 103121839.51606  26278284.650 5 112088918.18505
  26278283.431 6 105811919.45106  26278284.594 6 104466897.05706
  25115754.525 6 131984666.23906 102845445.14004  25115757.749 4  25115754.280 4
  25115757.036 5

  23555409.187 8 123784992.99208
                  23555412.107 8  92437133.74708  23555413.196 8 100475041.05408
  23555410.448 8  94848499.88108  23555411.099 8  93642711.88708
  21559969.029 8 113298861.70508  88285104.52406  21559970.112 6  21559968.797 6
  21559970.266 7  21559973.063 8  84606579.09908

  19264432.280 8 102834983.77308  79982849.84807
  19264436.874 7

  23122204.396 7 123731797.17707  96235991.95206
  23122214.426 6

  21159001.090 8 111191649.17708  86643050.87807  21159004.006 7  21159000.791 7
  21159003.866 7  21159000.899 8  83032940.92008

  19720499.246 8 105602799.01408  82135705.65407
  19720504.824 7

  24131560.590 4 128770687.42904


  24687952.258 7 129736264.36707
                  24687954.758 7  96881099.68707  24687955.555 7 105305507.39707
  24687952.865 7  99408413.14507  24687953.765 8  98144759.49008
  19852102.491 8 106195467.20108


  22824467.041 6 119943586.00306  93462646.17105  22824471.534 5  22824466.778 5
  22824471.601 7  22824471.042 7  89568393.51507

  23161261.403 6 123810324.70206


  20498767.940 8 109732005.59608  85347370.13607
  20498773.085 7

  26124821.997 6 137286931.54106
                  26124829.315 7 102519526.80207  26124826.312 7 111434238.88107
  26124827.011 7 105193934.27607  26124828.142 7 103856730.61107
  23267309.997 8 122270885.44208
                  23267311.724 8  91306394.19008  23267313.205 8  99246007.67008
  23267309.863 8  93688270.24708  23267310.698 8  92497337.79208
  24800552.000 6 130327989.52506 101554395.95403  24800558.338 3  24800551.714 3
  24800558.886 6  24800563.185 6  97323021.58806

  23309059.162 7 122489989.34607  95446793.46904  23309063.983 4  23309058.621 4
  23309064.530 6  23309062.133 7  91469843.17107

  37105934.247 7 194993009.67207
                  37105931.522 6 145611654.05906

  36827370.522 7 193529173.51607
                  36827379.356 7 144518555.29007

  24050822.961 8 126388433.95408
                  24050827.157 8  94381289.99908  24050825.373 8 102587790.81808
  24050825.263 8  96843370.17908  24050826.179 8  95612331.16408
  36980916.119 7 194336030.47907
                  36980915.539 6 145121063.41606

  24243901.345 6 129461076.58506 100692003.72606
  24243910.474 6

  28357513.192 6 149020049.10706
                  28357518.056 6 111281410.43706  28357517.129 6 120957979.86506
  28357515.783 6 114184379.08106  28357516.838 6 112732892.32806
  20890660.203 8 109781608.10208  85544300.83107  20890663.603 7  20890660.060 7
  20890663.899 7  20890661.092 8  81980039.70808

  22031704.053 7 115777467.87207  90216264.69206  22031707.921 6  22031703.517 6
  22031708.556 7  22031707.163 8  86457259.12108

  24533922.450 6 131055815.42806 101932329.07206
  24533928.219 6

  25231583.207 6 132592888.32506 103319145.30404  25231585.179 4  25231582.219 4


 25  4 11  3  2 30.0000000  0 29G18E19G15E29G23R22R21G10R08R06E33R23
                                G24R01R07E13E26G28G08S33S31E07S35R09
                                E08G32G27R16G02
  22130461.738 7 116296669.05907  90620931.54505  22130463.874 5  22130461.479 5
  22130464.140 7  22130467.136 8  86845118.16808

  26270515.743 5 138052627.53805
                  26270523.459 6 103091375.89206  26270521.006 5 112055805.51205
  26270520.658 6 105780661.12506  26270521.544 6 104436036.07906
  25126207.384 6 132039596.30606 102888247.88604  25126210.404 4  25126207.143 4
  25126210.871 5

  23551881.090 7 123766452.68007
                  23551883.905 8  92423288.73808  23551885.043 8 100459992.11508
  23551882.301 8  94834293.69208  23551882.962 8  93628686.28908
  21563893.406 7 113319484.97507  88301174.60806  21563894.632 6  21563893.170 6
  21563895.045 7  21563897.505 8  84621979.59208

  19268252.513 8 102855373.95208  79998708.87207
  19268256.427 7

  23134020.308 7 123795028.93607  96285172.12307
  23134030.683 7

  21157928.578 8 111186011.90908  86638658.21707  21157931.250 7  21157928.283 7
  21157931.293 7  21157928.156 8  83028731.29508

  19719507.573 8 105597486.94508  82131574.07508
  19719513.283 8

  24141273.478 5 128822522.01905


  24682223.250 7 129706158.94907
                  24682225.836 7  96858618.40107  24682226.733 7 105281071.20207
  24682223.986 7  99385345.38407  24682224.856 8  98121984.96708
  19845625.005 8 106160822.09008


  22827820.031 6 119961205.38506  93476375.56705  22827824.397 5  22827819.763 5
  22827824.841 7  22827823.920 7  89581550.85107

  23152976.905 6 123766034.20706


  20505953.607 8 109770470.78308  85377287.50307
  20505959.228 7

  26130875.103 6 137318740.62606
                  26130882.383 7 102543280.31507  26130879.504 7 111460057.91807
  26130880.134 7 105218307.43707  26130881.199 7 103880793.95007
  23267657.599 8 122272712.94108
                  23267659.503 8  91307758.88708  23267661.002 8  99247491.03208
  23267657.620 8  93689670.54608  23267658.447 8  92498720.28908
  24790797.222 6 130276733.33806 101514456.15703  24790804.030 3  24790796.945 3
  24790804.619 6  24790809.248 6  97284745.95006

  23306269.981 6 122475333.75406  95435373.55304  23306275.045 4  23306269.431 4
  23306276.098 6  23306273.130 7  91458899.09207

  37105935.200 7 194993012.61407
                  37105932.268 6 145611656.08906

  36827368.349 7 193529162.62107
                  36827377.473 7 144518538.86817

  24055150.064 8 126411173.20508
                  24055154.259 8  94398270.61508  24055152.511 8 102606248.00908
  24055152.333 8  96860793.76708  24055153.301 8  95629533.26608
  36980923.720 7 194336075.81107
                  36980924.098 6 145121097.32506

  24236929.305 6 129423851.04006 100663050.61406
  24236940.147 6

  28365495.245 6 149061996.74706
                  28365500.364 6 111312735.01106  28365499.806 6 120992028.29606
  28365498.112 6 114216520.81306  28365499.185 6 112764625.48306
  20886711.841 8 109760859.88408  85528133.41807  20886715.326 7  20886711.689 7
  20886715.854 7  20886712.822 8  81964545.94408

  22034774.859 7 115793604.86907  90228838.97506  22034778.719 6  22034774.305 6
  22034779.190 7  22034777.949 8  86469309.47608

  24532060.757 7 131045873.41407 101924596.44606
  24532067.794 6

  25222732.182 6 132546375.86406 103282901.88004  25222733.973 4  25222731.190 4


 25  4 11  3  2 45.0000000  0 29G18E19G15E29G23R22R21G10R08R06E33R23
                                G24R01R07E13E26G28G08S33S31E07S35R09
                                E08G32G27R16G02
  22137784.529 7 116335152.01707  90650918.24705  22137786.930 5  22137784.275 5
  22137787.239 7  22137790.273 8  86873855.41608

  26262759.964 5 138011870.07205
                  26262767.340 6 103060940.21106  26262765.401 5 112022723.22905
  26262764.385 6 105749431.45506  26262765.555 6 104405203.41206
  25136657.677 6 132094515.12906 102931041.88404  25136660.613 4  25136657.441 4
  25136661.944 5

  23548369.104 7 123747996.48407
                  23548371.808 8  92409506.54708  23548372.969 8 100445011.45708
  23548370.204 8  94820151.96108  23548370.843 8  93614724.32708
  21567823.377 8 113340136.11708  88317266.40706  21567824.419 6  21567823.145 6
  21567824.504 7  21567827.381 8  84637400.90908

  19272106.002 8 102875943.85308  80014707.67907
  19272110.263 7

  23145847.049 7 123858314.20507  96334393.93606
  23145857.497 6

  21156860.880 8 111180402.84208  86634287.53407  21156863.883 7  21156860.581 7
  21156863.919 7  21156860.763 8  83024542.72708

  19718537.924 8 105592292.75608  82127534.18908
  19718542.872 8

  24150980.582 5 128874322.18305


  24676499.769 7 129676081.51807
                  24676502.274 7  96836158.00107  24676503.126 7 105256657.71207
  24676500.466 7  99362299.05907  24676501.282 8  98099231.60408
  19839176.493 8 106126325.66408


  22831200.366 6 119978972.81506  93490220.33505  22831205.332 5  22831200.085 5
  22831205.890 7  22831204.966 7  89594818.76407

  23144703.503 6 123721813.69306


  20513148.353 8 109808985.20408  85407243.16707
  20513153.625 7

  26136937.971 6 137350600.93706
                  26136945.369 7 102567072.09807  26136942.319 7 111485918.57007
  26136943.036 7 105242719.88207  26136944.039 7 103904896.06507
  23268018.977 8 122274611.69808
                  23268020.805 8  91309176.80108  23268022.365 8  99249032.24408
  23268018.975 8  93691125.44908  23268019.759 8  92500156.69808
  24781039.177 6 130225451.13706 101474496.08303  24781045.755 3  24781038.887 3
  24781045.719 6  24781050.344 6  97246450.91106

  23303505.611 6 122460807.29206  95424054.24704  23303510.746 4  23303505.075 4
  23303511.372 6  23303508.905 7  91448051.43807

  37105934.954 7 194993016.12907
                  37105932.952 6 145611658.53206

  36827366.122 7 193529152.24507
                  36827375.394 7 144518531.04707

  24059489.987 8 126433979.91208
                  24059494.297 8  94415301.60808  24059492.389 8 102624759.95208
  24059492.361 8  96878269.04308  24059493.261 8  95646786.39908
  36980931.881 7 194336121.01507
                  36980932.715 6 145121131.01806

  24229969.259 6 129386682.99606 100634142.18206
  24229979.694 6

  28373477.546 5 149103944.95905
                  28373482.856 6 111344060.03506  28373482.332 6 121026077.22206
  28373480.560 6 114248663.00506  28373481.715 6 112796359.09506
  20882784.485 8 109740221.62908  85512051.69007  20882787.976 7  20882784.342 7
  20882788.296 7  20882785.434 8  81949134.29708

  22037870.159 7 115809869.67607  90241512.85206  22037873.802 6  22037869.605 6
  22037874.074 7  22037873.103 8  86481455.28008

  24530227.747 6 131036081.72406 101916980.69906
  24530234.517 6

  25213880.184 6 132499860.90706 103246656.49903  25213881.873 3  25213879.160 3


 25  4 11  3  3  0.0000000  0 29G18E19G15E29G23R22R21G10R08R06E33R23
                                G24R01R07E13E26G28G08S33S31E07S35R09
                                E08G32G27R16G02
  22145125.256 7 116373726.43607  90680976.22305  22145127.416 5  22145125.011 5
  22145127.444 7  22145130.758 8  86902660.97308

  26255011.367 5 137971152.82105
                  26255019.097 6 103030534.59806  26255017.130 5 111989673.58505
  26255016.183 6 105718232.63206  26255017.190 6 104374401.18806
  25147106.804 6 132149425.11306 102973828.99704  25147109.565 4  25147106.568 4
  25147108.690 5

  23544873.572 7 123729627.19407
                  23544876.225 8  92395789.24708  23544877.247 8 100430101.34108
  23544874.651 8  94806076.82008  23544875.259 8  93600828.10508
  21571758.730 7 113360817.90407  88333382.08406  21571760.042 6  21571758.485 6
  21571760.332 7  21571762.987 8  84652845.09408

  19275993.309 8 102896696.20908  80030848.39907
  19275997.632 7

  23157683.585 7 123921655.64607  96383659.45307
  23157694.782 7

  21155799.635 8 111174824.71808  86629940.95807  21155802.400 7  21155799.340 7
  21155802.435 7  21155799.278 8  83020377.26408

  19717590.258 8 105587218.95808  82123587.92707
  19717595.405 7

  24160683.123 5 128926090.36405


  24670782.139 7 129646034.96307
                  24670784.704 7  96813720.67207  24670785.433 7 105232269.30207
  24670782.736 7  99339276.39807  24670783.588 8  98076501.60808
  19832756.349 8 106091981.20508


  22834610.347 6 119996890.98706  93504182.56205  22834615.061 5  22834610.066 5
  22834615.692 7  22834614.584 7  89608199.22907

  23136447.183 6 123677666.26506


  20520353.251 8 109847551.42108  85437239.11707
  20520358.672 7

  26143011.129 6 137382515.26406
                  26143018.543 7 102590904.20107  26143015.454 7 111511823.01807
  26143016.096 7 105267173.68807  26143017.120 7 103929039.01907
  23268394.551 7 122276584.57807
                  23268396.284 8  91310650.06608  23268397.721 8  99250633.61608
  23268394.384 8  93692637.14708  23268395.170 8  92501649.17908
  24771276.192 6 130174146.01406 101434518.14203  24771282.374 3  24771275.893 3
  24771282.931 6  24771287.143 6  97208138.74806

  23300766.529 6 122446412.77906  95412837.77504  23300771.569 4  23300766.006 4
  23300772.484 6  23300769.768 7  91437302.32407

  37105937.288 7 194993022.62207
                  37105934.057 6 145611663.69506

  36827364.490 7 193529144.52707
                  36827373.936 7 144518525.40007

  24063843.370 8 126456856.64508
                  24063847.565 8  94432384.88808  24063845.666 8 102643328.73508
  24063845.657 8  96895797.97408  24063846.547 8  95664092.50608
  36980942.027 7 194336168.64107
                  36980941.828 6 145121166.45606

  24223019.467 6 129349575.88306 100605281.14106
  24223029.332 6

  28381460.879 5 149145896.39305
                  28381465.938 6 111375387.42806  28381465.342 6 121060128.72806
  28381463.759 6 114280807.65106  28381464.943 6 112828095.11506
  20878878.636 8 109719696.12708  85496057.82107  20878882.089 7  20878878.489 7
  20878882.511 7  20878879.588 8  81933806.84608

  22040990.131 7 115826264.82307  90254288.29406  22040993.715 6  22040989.555 6
  22040994.233 7  22040992.888 8  86493698.41008

  24528423.518 6 131026443.92706 101909484.66106
  24528429.633 6

  25205029.179 6 132453346.43106 103210411.48903  25205030.359 3  25205028.151 3


 25  4 11  3  3 15.0000000  0 29G18E19G15E29G23R22R21G10R08R06E33R23
                                G24R01R07E13E26G28G08S33S31E07S35R09
                                E08G32G27R16G02
  22152482.298 7 116412388.05007  90711102.13905  22152484.550 5  22152482.048 5
  22152484.754 7  22152487.831 8  86931531.63908

  26247270.170 5 137930471.94005
                  26247277.668 6 103000156.11406  26247275.615 5 111956653.45105
  26247274.753 6 105687061.66106  26247275.886 6 104343626.46206
  25157553.360 6 132204322.06706 103016605.94004  25157556.071 4  25157553.128 4
  25157555.895 5

  23541393.508 7 123711340.69907
                  23541396.400 8  92382133.77908  23541397.395 8 100415258.42408
  23541394.776 8  94792065.11608  23541395.420 8  93586994.52008
  21575699.167 8 113381526.20308  88349518.42306  21575700.668 6  21575698.908 6
  21575700.589 7  21575703.693 8  84668309.09008

  19279914.190 8 102917626.69708  80047127.65907
  19279918.502 7

  23169531.161 7 123985048.76807  96432965.12406
  23169540.538 6

  21154743.136 8 111169273.40808  86625615.27707  21154746.046 7  21154742.837 7
  21154746.019 7  21154742.814 8  83016231.82008

  19716664.438 8 105582261.20008  82119731.91007
  19716669.464 7

  24170376.227 5 128977822.34505


  24665069.538 7 129616015.36307
                  24665072.111 7  96791303.47107  24665072.823 7 105207902.76307
  24665070.115 7  99316274.40207  24665071.014 8  98053792.00908
  19826363.389 8 106057784.82508


  22838048.295 6 120014955.58406  93518258.88005  22838052.616 5  22838048.014 5
  22838053.115 7  22838052.076 7  89621689.04407

  23128199.626 6 123633587.47606


  20527566.081 8 109886164.98808  85467271.90107
  20527571.819 7

  26149093.991 6 137414479.37506
                  26149101.086 7 102614773.48007  26149097.757 7 111537767.89007
  26149098.750 7 105291665.65007  26149099.698 7 103953219.64007
  23268783.189 7 122278627.54507
                  23268784.999 8  91312175.67108  23268786.434 8  99252291.87608
  23268783.111 8  93694202.54608  23268783.924 8  92503194.68208
  24761507.481 6 130122814.18806 101394519.40703  24761514.960 3  24761507.155 3
  24761514.661 6  24761518.732 6  97169806.60806

  23298051.451 6 122432146.17706  95401720.96004  23298056.722 4  23298050.924 4
  23298057.461 6  23298054.798 7  91426648.72307

  37105937.641 7 194993026.92807
                  37105934.813 6 145611666.78206

  36827363.650 7 193529134.98307
                  36827372.134 7 144518518.16907

  24068209.240 8 126479799.07408
                  24068213.302 8  94449517.23408  24068211.640 8 102661950.84408
  24068211.490 8  96913377.25008  24068212.331 8  95681448.31608
  36980950.519 7 194336215.72107
                  36980950.588 6 145121201.81906

  24216081.914 6 129312525.69106 100576464.39206
  24216092.122 6

  28389443.810 6 149187846.67006
                  28389448.767 6 111406713.99706  28389447.927 6 121094179.33106
  28389446.887 6 114312951.44106  28389447.876 6 112859830.29106
  20874993.499 8 109699279.25808  85480148.60807  20874996.826 7  20874993.352 7
  20874997.322 7  20874994.355 8  81918560.52708

  22044133.598 7 115842785.93807  90267161.88506  22044137.651 6  22044133.013 6
  22044137.906 7  22044136.762 8  86506035.60608

  24526647.487 7 131016955.75707 101902105.03706
  24526653.834 6

  25196177.071 6 132406828.54906 103174163.82904  25196178.188 4  25196176.025 4


 25  4 11  3  3 30.0000000  0 29G18E19G15E29G23R22R21G10R08R06E33R23
                                G24R01R07E13E26G28G08S33S31E07S35R09
                                E08G32G27R16G02
  22159856.280 7 116451136.36507  90741295.61605  22159858.027 5  22159856.039 5
  22159858.240 7  22159861.473 8  86960467.04608

  26239535.780 5 137889827.11505
                  26239542.875 6 102969804.56006  26239540.886 5 111923662.59605
  26239540.389 6 105655918.32306  26239541.352 6 104312879.01106
  25167997.461 6 132259205.54206 103059372.39604  25167999.935 4  25167997.233 4
  25168000.391 5

  23537929.645 7 123693136.63507
                  23537932.190 8  92368539.86908  23537933.391 8 100400482.42508
  23537930.659 8  94778116.57508  23537931.272 8  93573223.29508
  21579645.071 7 113402260.68407  88365675.16806  21579646.226 6  21579644.812 6
  21579646.780 7  21579649.266 8  84683792.63508

  19283868.777 8 102938734.88408  80063545.14007
  19283872.773 7

  23181386.043 7 124048492.56807  96482310.24806
  23181396.497 6

  21153691.619 8 111163748.51508  86621310.18207  21153694.678 7  21153691.320 7
  21153694.669 7  21153691.447 8  83012106.10808

  19715759.976 8 105577418.92608  82115965.71607
  19715765.124 7

  24180064.270 5 129029517.43505


  24659362.039 7 129586022.54507
                  24659364.542 7  96768906.26007  24659365.381 7 105183557.96207
  24659362.648 7  99293292.91207  24659363.561 8  98031102.65908
  19819998.811 8 106023736.67008


  22841512.832 7 120033166.17207  93532448.96705  22841517.891 5  22841512.546 5
  22841518.422 7  22841517.489 7  89635287.87407

  23119966.566 6 123589577.28306


  20534788.276 8 109924824.97408  85497340.77507
  20534793.826 7

  26155186.048 6 137446492.85206
                  26155192.942 7 102638679.64107  26155190.359 7 111563752.85907
  26155190.673 7 105316195.45307  26155191.662 7 103977437.62107
  23269185.199 8 122280740.36708
                  23269187.029 8  91313753.43508  23269188.548 8  99254006.83408
  23269185.178 8  93695821.47208  23269185.967 8  92504793.02708
  24751734.786 6 130071455.51406 101354499.75603  24751741.464 3  24751734.465 3
  24751741.252 6  24751745.566 6  97131454.47906

  23295361.343 6 122418007.21406  95390703.60504  23295365.990 4  23295360.816 4
  23295366.661 6  23295364.299 7  91416090.41407

  37105937.489 7 194993029.94707
                  37105935.524 6 145611668.95506

  36827360.832 7 193529124.34707
                  36827369.992 7 144518510.43007

  24072587.470 8 126502806.63608
                  24072591.494 8  94466698.21308  24072589.697 8 102680625.82208
  24072589.644 8  96931006.42908  24072590.519 8  95698853.39508
  36980959.113 7 194336259.63907
                  36980959.245 6 145121234.42406

  24209155.172 6 129275532.61306 100547692.04606
  24209163.746 6

  28397426.469 6 149229795.29306
                  28397430.944 6 111438039.33206  28397430.636 6 121128228.58406
  28397429.730 6 114345093.93306  28397430.299 6 112891564.20806
  20871128.823 8 109678970.69808  85464323.78807  20871132.177 7  20871128.680 7
  20871132.490 7  20871129.742 8  81903395.08308

  22047301.942 7 115859432.44007  90280133.18406  22047305.429 6  22047301.361 6
  22047305.993 7  22047304.541 8  86518466.43308

  24524899.333 6 131007617.03506 101894841.67906
  24524905.582 6

  25187323.598 6 132360306.99506 103137913.31804  25187325.985 4  25187322.548 4


 25  4 11  3  3 45.0000000  0 29G18E19G15E29G23R22R21G10R08R06E33R23
                                G24R01R07E13E26G28G08S33S31E07S35R09
                                E08G32G27R16G02
  22167246.592 7 116489973.48707  90771558.29305  22167248.573 5  22167246.347 5
  22167248.881 7  22167251.952 8  86989468.78608

  26231808.822 5 137849220.89805
                  26231815.944 6 102939481.83306  26231814.168 5 111890703.07605
  26231812.532 6 105624804.55806  26231814.169 6 104282160.77406
  25178438.879 6 132314077.20106 103102129.60204  25178441.656 4  25178438.660 4
  25178441.950 5

  23534481.514 7 123675017.30207
                  23534484.186 8  92355009.22708  23534485.413 8 100385775.19508
  23534482.637 8  94764232.95308  23534483.244 8  93559516.16208
  21583596.248 7 113423023.61407  88381854.07606  21583597.276 6  21583595.998 6
  21583597.712 7  21583600.332 8  84699297.41808

  19287856.596 8 102960022.96208  80080102.53307
  19287861.132 7

  23193250.546 7 124111989.13507  96531696.40906
  23193262.515 6

  21152645.730 8 111158252.33708  86617027.46007  21152648.775 7  21152645.422 7
  21152648.772 8  21152645.522 8  83008001.83308

  19714878.027 8 105572694.33308  82112291.05307
  19714882.742 7

  24189745.660 5 129081177.74005


  24653659.962 7 129556058.94007
                  24653662.634 8  96746530.87308  24653663.545 7 105159236.87407
  24653660.766 7  99270333.81307  24653661.629 8  98008435.41608
  19813662.230 8 105989839.78008


  22845006.871 7 120051524.89107  93546754.47805  22845011.552 5  22845006.594 5
  22845011.680 7  22845010.975 7  89648997.33007

  23111748.611 6 123545637.84806


  20542019.125 8 109963533.29608  85527447.24507
  20542025.226 7

  26161287.642 6 137478557.95306
                  26161294.643 7 102662624.33907  26161292.021 7 111589779.70907
  26161292.266 7 105340764.79007  26161293.459 7 104001694.63707
  23269601.039 8 122282925.39208
                  23269602.789 8  91315385.12108  23269604.367 8  99255780.40008
  23269600.946 8  93697495.71808  23269601.757 8  92506445.99308
  24741956.743 6 130020072.66306 101314461.24003  24741962.616 3  24741956.466 3
  24741963.400 6  24741967.815 6  97093084.25606

  23292695.042 6 122403998.14506  95379787.46704  23292700.027 4  23292694.497 4
  23292701.303 6  23292698.405 7  91405629.12007

  37105938.138 7 194993033.47607
                  37105936.109 6 145611671.91506

  36827357.738 7 193529113.60007
                  36827368.020 7 144518502.40807

  24076978.369 8 126525881.40308
                  24076982.474 8  94483929.38108  24076980.811 8 102699355.34608
  24076980.566 8  96948687.10008  24076981.491 8  95716309.31408
  36980966.102 7 194336304.97607
                  36980967.795 6 145121268.36106

  24202237.909 6 129238599.59106 100518966.39706
  24202248.123 6

  28405409.123 6 149271744.40206
                  28405413.336 6 111469365.03306  28405413.449 6 121162278.22106
  28405411.969 6 114377236.81206  28405412.678 6 112923298.49406
  20867285.369 8 109658772.70708  85448585.13107  20867288.554 7  20867285.226 7
  20867288.958 7  20867286.110 8  81888312.21008

  22050493.702 7 115876206.35507  90293203.77206  22050497.465 6  22050493.130 6
  22050497.840 7  22050496.579 8  86530992.40608

  24523178.946 6 130998430.39906 101887696.55606
  24523186.015 6

  25178471.224 6 132313784.23206 103101661.86004  25178473.393 4  25178470.178 4


 25  4 11  3  4  0.0000000  0 29G18E19G15E29G23R22R21G10R08R06E33R23
                                G24R01R07E13E26G28G08S33S31E07S35R09
                                E08G32G27R16G02
  22174653.128 7 116528895.95207  90801887.47005  22174655.310 5  22174652.887 5
  22174655.632 7  22174658.608 8  87018534.23708

  26224088.244 5 137808649.92205
                  26224095.189 6 102909185.42506  26224093.070 5 111857772.17505
  26224092.706 6 105593717.79406  26224093.676 6 104251469.18506
  25188877.958 6 132368933.74506 103144875.08404  25188880.623 4  25188877.735 4
  25188880.503 5

  23531048.814 7 123656979.35407
                  23531051.601 8  92341539.36208  23531052.796 8 100371134.01908
  23531050.107 8  94750411.69708  23531050.706 8  93545870.60308
  21587552.127 7 113443811.63907  88398052.54206  21587553.128 6  21587551.877 6
  21587553.525 7  21587556.176 8  84714820.95708

  19291877.422 8 102981487.34608  80096797.05407
  19291882.073 7

  23205127.130 7 124175534.51607  96581120.51306
  23205137.643 6

  21151604.855 8 111152781.46608  86612764.46207  21151607.718 7  21151604.547 7
  21151607.489 8  21151604.478 8  83003916.46308

  19714016.963 8 105568083.73708  82108705.06608
  19714022.055 8

  24199419.708 5 129132799.83505


  24647963.152 7 129526121.37907
                  24647965.683 8  96724174.93808  24647966.469 7 105134936.93607
  24647963.744 7  99247394.67307  24647964.666 8  97985787.87908
  19807353.211 8 105956090.81708


  22848527.860 6 120070028.28806  93561172.72005  22848532.776 5  22848527.574 5
  22848533.209 7  22848532.023 7  89662814.80007

  23103539.443 6 123501766.38306


  20549258.364 8 110002286.29208  85557588.47107
  20549264.279 7

  26167398.793 6 137510671.22806
                  26167405.793 7 102686605.00207  26167402.900 7 111615845.67507
  26167403.314 7 105365371.04707  26167404.428 7 104025988.09807
  23270029.998 7 122285179.38407
                  23270031.746 8  91317068.30908  23270033.253 8  99257609.94708
  23270029.876 8  93699222.81408  23270030.666 8  92508151.13408
  24732173.348 6 129968662.56006 101274401.50903  24732179.980 3  24732173.062 3
  24732180.764 6  24732184.659 6  97054693.69406

  23290053.442 6 122390115.67306  95368969.97504  23290058.250 4  23290052.892 4
  23290058.837 6  23290056.725 7  91395262.36807

  37105939.332 7 194993033.74607
                  37105936.185 6 145611672.04406

  36827356.285 7 193529099.81507
                  36827365.480 7 144518491.99707

  24081381.443 8 126549019.84408
                  24081385.620 8  94501208.09508  24081383.809 8 102718136.56008
  24081383.662 8  96966416.56308  24081384.581 8  95733813.40308
  36980975.260 7 194336347.58007
                  36980975.615 6 145121300.34306

  24195330.986 6 129201723.50906 100490285.08406
  24195341.895 6

  28413390.649 6 149313690.41406
                  28413395.783 6 111500688.43106  28413395.238 6 121196325.36106
  28413393.660 6 114409377.32306  28413394.555 6 112955030.45006
  20863462.016 8 109638681.97008  85432930.04507  20863465.361 7  20863461.873 7
  20863465.599 7  20863463.049 8  81873309.42508

  22053709.136 7 115893104.05607  90306370.81206  22053712.995 6  22053708.560 6
  22053713.519 7  22053711.982 8  86543610.82908

  24521486.690 6 130989392.65806 101880667.21605
  24521493.468 5

  25169617.246 6 132267257.16906 103065407.06104  25169619.017 4  25169616.187 4


 25  4 11  3  4 15.0000000  0 29G18E19G15E29G23R22R21G10R08R06E33R23
                                G24R01R07E13E26G28G08S33S31E07S35R09
                                E08G32G27R16G02
