     2.11           OBSERVATION DATA    M                   RINEX VERSION / TYPE
ssrcrin-13.7.0x                         11-APR-25 04:00     PGM / RUN BY / DATE 
(000000000000583293750002) Septentrio proprietary           COMMENT             
SEPT                                                        MARKER NAME         
Unknown                                                     MARKER NUMBER       
Unknown             Unknown                                 OBSERVER / AGENCY   
3083514             SEPT POLARX5E       5.4.0               REC # / TYPE / VERS 
Unknown             Unknown                                 ANT # / TYPE        
 -1908063.3522 -5042727.7202  3400841.9029                  APPROX POSITION XYZ 
        0.0000        0.0000        0.0000                  ANTENNA: DELTA H/E/N
     1     1                                                WAVELENGTH FACT L1/2
    14    C1    L1    L2    P2    P1    C2    C5    L5    C6# / TYPES OF OBSERV 
          L6    C7    L7    C8    L8                        # / TYPES OF OBSERV 
For GPS, L2 corresponds to the L2P carrier phase.           COMMENT             
For GLONASS, L2 corresponds to the L2CA carrier phase.      COMMENT             
  2025     4    11     4     0    0.0000000     GPS         TIME OF FIRST OBS   
                                                            END OF HEADER       
 25  4 11  4  0  0.0000000  0 29G18E19E29G23R22G10R08R10E33R23G24R01
                                R07E13E26G28G08S33S31E07S35R09E12G32
                                G01R24G27G31G02
  24193527.473 6 127138126.90606  99068813.64003  24193531.935 3  24193527.165 3
  24193532.287 6  24193535.393 7  94941003.63907

  24719441.311 6 129901729.90106
                  24719444.363 6  97004682.66006  24719444.311 6 105439585.56406
  24719442.378 6  99535182.73006  24719443.159 7  98269950.26707
  23160465.256 8 121709567.27108
                  23160466.912 8  90887308.15908  23160468.518 8  98790446.01608
  23160465.371 8  93258243.43408  23160465.976 8  92072670.86908
  22618770.168 7 118862897.57207  92620715.79305  22618771.793 5  22618769.896 5
  22618772.453 7  22618775.105 7  88761539.66107

  20960291.327 7 111887581.56507  87023756.15807
  20960296.561 7

  21061604.721 8 110679841.02808  86244242.43007  21061606.886 7  21061604.373 7
  21061606.875 7  21061603.980 8  82650750.16008

  19985406.563 8 107021378.83908  83239049.14108
  19985411.173 8

  23215794.421 6 123753288.31806


  23580691.272 8 123917588.40508
                  23580692.454 8  92535990.23308  23580693.643 8 100582560.17808
  23580690.589 8  94949952.34208  23580691.485 8  93742974.36108
  19237785.506 8 102909300.26908


  24273946.934 6 127560659.20006  99398028.66905  24273951.882 5  24273946.630 5
  24273952.090 6  24273951.444 7  95256468.51507

  21613414.781 7 115536258.81107


  22285439.867 8 119296196.54808  92786183.94207
  22285445.928 7

  27755783.186 6 145857665.81606
                  27755792.578 6 108919743.28206  27755788.329 6 118390942.62506
  27755789.845 6 111761113.77106  27755791.173 7 110340428.60207
  23740770.457 7 124758938.96107
                  23740771.871 8  93164356.91108  23740773.429 8 101265532.11208
  23740770.166 8  95594701.48108  23740770.917 8  94379534.77008
  22548090.955 7 118491303.23607  92331023.36605  22548092.617 5  22548090.759 5
  22548092.881 7  22548096.409 7  88483960.35207

  23313435.529 7 122513003.87807  95464730.41204  23313439.708 4  23313434.971 4
  23313441.158 6  23313438.164 7  91487033.45107

  37105980.551 7 194993282.75807
                  37105980.262 6 145611861.54806

  36826864.590 7 193526523.48507
                  36826872.229 7 144516561.48907

  25316544.080 7 133039848.06507
                  25316548.107 7  99348256.16007  25316546.321 7 107986666.66207
  25316546.231 7 101939909.23207  25316547.097 8 100644083.76908
  36982775.468 7 194345829.17807
                  36982776.924 6 145128370.08706

  23100703.636 7 123356514.76407  95944024.83007
  23100708.868 7

  27985378.821 6 147064185.22106
                  27985381.506 6 109820680.81206  27985380.438 6 119370282.23806
  27985380.022 6 112685562.57906  27985380.765 6 111253121.76706
  20523269.802 8 107850976.98808  84039917.73707  20523271.833 7  20523269.664 7
  20523272.226 8  20523268.968 8  80538340.31708

  25462173.629 6 133804628.85106 104263364.83803  25462176.665 3  25462173.464 3
  25462177.249 6  25462180.598 6  99919069.49406

  22096690.228 8 118160968.46808  91903047.05607
  22096696.469 7

  23275805.332 6 122315255.15506  95310643.52204  23275808.378 4  23275804.774 4
  23275808.750 7  23275807.494 7  91339371.93207

  24430632.181 6 128384056.87106 100039647.98003  24430636.191 3  24430631.824 3
  24430637.562 6

  23262512.713 7 122245399.06307  95256178.33005  23262511.454 5  23262511.667 5


 25  4 11  4  0 15.0000000  0 29G18E19E29G23R22G10R08R10E33R23G24R01
                                R07E13E26G28G08S33S31E07S35R09E12G32
                                G01R24G27G31G02
  24203806.733 6 127192144.72906  99110905.40203  24203811.073 3  24203806.420 3
  24203811.045 6  24203814.365 7  94981341.55007

  24713875.201 6 129872478.86406
                  24713878.111 6  96982839.40906  24713877.990 6 105415842.87306
  24713875.900 6  99512769.64006  24713876.839 7  98247822.09807
  23160506.881 8 121709784.39208
                  23160508.234 8  90887470.31608  23160509.842 8  98790622.26408
  23160506.697 8  93258409.82008  23160507.272 8  92072835.14108
  22624088.305 7 118890843.09407  92642491.51005  22624089.800 5  22624088.028 5
  22624090.103 7  22624092.944 7  88782408.06107

  20970652.280 7 111942888.50107  87066772.62607
  20970657.071 7

  21061919.538 8 110681495.49408  86245531.63507  21061921.720 7  21061919.199 7
  21061921.771 7  21061918.792 8  82651985.64908

  19988274.376 8 107036733.48208  83250991.65708
  19988278.799 8

  23207683.711 6 123710046.09506


  23577177.868 8 123899125.95708
                  23577179.103 8  92522203.36408  23577180.341 8 100567574.44208
  23577177.271 8  94935805.81108  23577178.184 8  93729007.66108
  19239411.098 8 102917996.18608


  24282727.856 6 127606803.70506  99433985.45505  24282732.794 5  24282727.557 5
  24282733.418 6  24282732.257 7  95290927.08707

  21608310.552 7 115508977.11307


  22293295.462 7 119338245.96707  92818889.04107
  22293300.845 7

  27763701.543 6 145899276.06406
                  27763710.691 6 108950815.81906  27763707.256 6 118424717.12206
  27763708.202 6 111792996.88906  27763709.370 7 110371906.42807
  23744627.026 7 124779205.59607
                  23744628.526 8  93179491.08308  23744630.220 8 101281982.29208
  23744626.823 8  95610230.45808  23744627.535 8  94394866.34408
  22538956.233 7 118443299.71007  92293618.07705  22538957.758 5  22538956.046 5
  22538957.960 7  22538961.557 7  88448113.62807

  23316132.548 7 122527173.82007  95475771.93804  23316136.128 4  23316131.985 4
  23316137.509 6  23316134.749 7  91497614.91807

  37105981.745 7 194993282.93507
                  37105980.334 6 145611861.78406

  36826864.764 7 193526513.20707
                  36826870.253 7 144516553.68107

  25322857.397 7 133073024.24707
                  25322861.381 7  99373030.57607  25322859.697 7 108013595.39207
  25322859.451 7 101965329.94407  25322860.317 8 100669181.33508
  36982785.659 7 194345869.74007
                  36982784.695 6 145128400.47406

  23098510.134 7 123344807.35307  95934919.13607
  23098516.651 7

  27977470.010 6 147022624.40206
                  27977472.780 6 109789645.21006  27977471.677 5 119336547.87205
  27977471.178 6 112653717.33706  27977471.940 6 111221681.34906
  20523918.514 8 107854387.28008  84042575.12107  20523920.764 7  20523918.376 7
  20523921.261 8  20523917.868 8  80540886.98408

  25452164.804 6 133752030.47706 104222379.14803  25452168.011 3  25452164.621 3
  25452167.995 6  25452171.402 6  99879791.54006

  22086759.313 8 118107859.67508  91861740.25307
  22086764.428 7

  23282957.244 6 122352843.20506  95339932.90804  23282961.239 4  23282956.690 4
  23282961.438 7  23282960.186 7  91367440.93007

  24419711.098 6 128326662.49106  99994925.22103  24419714.638 3  24419710.741 3
  24419714.870 6

  23254745.720 7 122204581.25607  95224372.29505  23254743.946 5  23254744.679 5


 25  4 11  4  0 30.0000000  0 29G18E19E29G23R22G10R08R10E33R23G24R01
                                R07E13E26G28G08S33S31E07S35R09E12G32
                                G01R24G27G31G02
  24214094.139 6 127246203.07506  99153028.73403  24214097.938 3  24214093.818 3
  24214098.608 6  24214101.290 7  95021709.74507

  24708320.001 6 129843285.97106
                  24708322.680 6  96961039.58406  24708322.795 6 105392147.39106
  24708320.684 6  99490401.10106  24708321.559 7  98225737.91607
  23160561.780 8 121710073.92708
                  23160563.285 8  90887686.54108  23160564.956 8  98790857.28208
  23160561.730 8  93258631.68408  23160562.353 8  92073054.18508
  22629413.025 7 118918824.98707  92664295.57105  22629414.751 5  22629412.739 5
  22629414.884 7  22629417.863 7  88803303.61307

  20981033.065 7 111998302.37107  87109872.28407
  20981038.452 7

  21062242.092 8 110683188.33208  86246850.73907  21062243.842 7  21062241.757 7
  21062243.714 7  21062240.920 8  82653249.79908

  19991152.273 8 107052146.01208  83262979.18507
  19991156.698 7

  23199582.711 6 123666868.46006


  23573678.389 8 123880736.09808
                  23573679.679 8  92508470.69508  23573680.891 8 100552647.61408
  23573677.765 8  94921714.89608  23573678.693 8  93715095.87008
  19241074.935 8 102926898.08608


  24291525.905 6 127653036.83606  99470011.29605  24291530.640 5  24291525.606 5
  24291531.183 6  24291529.897 7  95325451.84107

  21603219.418 7 115481764.73007


  22301148.402 7 119380284.50707  92851585.67007
  22301154.684 7

  27771625.230 6 145940915.54406
                  27771634.722 6 108981910.18806  27771630.421 6 118458515.36306
  27771631.643 6 111824902.41906  27771633.005 7 110403406.37507
  23748499.316 7 124799554.85807
                  23748500.783 8  93194686.95708  23748502.616 8 101298499.55208
  23748499.121 8  95625822.75108  23748499.862 8  94410260.42808
  22529832.175 7 118395352.40407  92256256.59205  22529833.614 5  22529831.997 5
  22529833.739 7  22529837.471 7  88412308.88107

  23318849.622 7 122541451.46907  95486897.39104  23318853.148 4  23318849.072 4
  23318854.367 6  23318851.644 7  91508276.80007

  37105981.486 7 194993283.10507
                  37105980.258 6 145611862.11006

  36826859.827 7 193526501.87907
                  36826868.030 7 144516545.20807

  25329174.947 7 133106223.11507
                  25329179.015 7  99397821.93507  25329177.093 7 108040542.50807
  25329177.178 7 101990768.04007  25329177.884 8 100694296.06308
  36982792.027 7 194345909.74607
                  36982792.230 6 145128430.39706

  23096347.118 7 123333254.10707  95925933.29507
  23096352.842 7

  27969561.800 6 146981066.02506
                  27969564.380 6 109758611.42406  27969563.761 5 119302815.46805
  27969562.522 6 112621873.96806  27969563.594 6 111190242.77206
  20524584.838 8 107857888.48408  84045303.34907  20524587.040 7  20524584.695 7
  20524587.537 8  20524584.183 8  80543501.53908

  25442154.469 6 133699428.54106 104181390.66703  25442158.011 3  25442154.313 3
  25442157.502 5  25442161.866 6  99840510.91606

  22076846.653 8 118054853.50008  91820513.31807
  22076851.878 7

  23290119.297 6 122390482.33606  95369262.10204  23290123.688 4  23290118.743 4
  23290124.232 6  23290122.651 7  91395548.07607

  24408786.835 6 128269254.92506  99950192.18903  24408790.200 3  24408786.460 3
  24408790.323 6

  23246988.452 7 122163817.97607  95192608.75105  23246986.768 5  23246987.433 5


 25  4 11  4  0 45.0000000  0 29G18E19E29G23R22G10R08R10E33R23G24R01
                                R07E13E26G28G08S33S31E07S35R09E12G32
                                G01R24G27G31G02
  24224388.227 6 127300301.26406  99195183.11103  24224392.709 3  24224387.910 3
  24224393.234 6  24224395.904 7  95062107.67407

  24702775.767 6 129814150.75906
                  24702778.473 6  96939282.80806  24702778.548 6 105368498.71006
  24702776.573 6  99468076.76006  24702777.261 7  98203697.35607
  23160630.868 8 121710435.30708
                  23160632.021 8  90887956.42508  23160633.783 8  98791150.63508
  23160630.484 8  93258908.60508  23160631.100 8  92073327.58708
  22634744.858 7 118946842.85807  92686127.66105  22634746.378 5  22634744.572 5
  22634746.686 7  22634749.445 7  88824226.03507

  20991433.570 7 112053822.29907  87153054.41007
  20991439.358 7

  21062571.035 8 110684919.19608  86248199.46907  21062573.204 7  21062570.696 7
  21062573.325 7  21062570.263 8  82654542.33008

  19994041.534 8 107067615.91008  83275011.33708
  19994045.847 8

  23191495.401 6 123623755.14906


  23570192.645 8 123862418.57708
                  23570193.944 8  92494792.04508  23570195.105 8 100537779.51408
  23570192.076 8  94907679.41108  23570192.973 8  93701238.80208
  19242777.786 8 102936005.49808


  24300340.578 6 127699357.75206  99506105.51705  24300345.093 5  24300340.279 5
  24300345.291 6  24300344.639 7  95360042.14407

  21598142.485 7 115454621.19507


  22308999.889 8 119422311.65708  92884273.43607
  22309004.696 7

  27779554.378 6 145982583.68206
                  27779563.735 6 109013025.96606  27779560.289 6 118492336.89506
  27779560.562 6 111856829.91906  27779562.193 7 110434928.01407
  23752387.402 7 124819986.23707
                  23752388.778 8  93209944.16608  23752390.564 8 101315083.47308
  23752387.127 8  95641477.96908  23752387.830 8  94425716.64208
  22520718.270 7 118347461.27007  92218938.87705  22520720.174 5  22520718.087 5
  22520720.549 7  22520724.044 7  88376546.07307

  23321586.761 6 122555836.08106  95498106.18604  23321590.501 4  23321586.198 4
  23321591.613 6  23321588.828 7  91519018.57607

  37105980.023 7 194993281.88607
                  37105980.025 6 145611860.99906

  36826856.666 7 193526489.21407
                  36826865.647 7 144516535.75807

  25335496.401 7 133139444.03207
                  25335500.756 7  99422629.77307  25335499.218 7 108067507.54707
  25335498.743 7 102016223.02207  25335499.631 8 100719427.47408
  36982800.018 7 194345948.47407
                  36982799.693 6 145128459.12706

  23094212.129 7 123321854.63107  95917067.08407
  23094218.016 7

  27961653.934 6 146939509.78306
                  27961656.279 6 109727579.23206  27961655.353 6 119269084.79906
  27961654.870 6 112590032.23406  27961655.650 6 111158805.80806
  20525268.203 8 107861479.95608  84048101.91307  20525270.465 7  20525268.056 7
  20525270.845 8  20525267.608 8  80546183.50008

  25432144.499 6 133646822.81206 104140399.24503  25432147.063 3  25432144.330 3
  25432147.912 5  25432151.457 6  99801227.49706

  22066952.608 8 118001950.00108  91779366.17807
  22066958.687 7

  23297291.357 6 122428171.70306  95398630.42804  23297295.813 4  23297290.781 4
  23297296.321 6  23297294.677 7  91423692.73007

  24397859.530 6 128211833.94606  99905448.69003  24397863.151 3  24397859.133 3
  24397863.484 6

  23239241.710 7 122123109.16407  95160887.64205  23239240.156 5  23239240.700 5


 25  4 11  4  1  0.0000000  0 29G18E19E29G23R22G10R08R10E33R23G24R01
                                R07E13E26G28G08S33S31E07S35R09E12G32
                                G01R24G27G31G02
  24234690.824 6 127354439.80406  99237368.92803  24234695.126 3  24234690.503 3
  24234695.372 6  24234698.273 7  95102535.75007

  24697242.481 6 129785074.00706
                  24697245.329 6  96917569.69706  24697245.248 6 105344897.47506
  24697243.174 6  99445797.20806  24697244.089 7  98181701.02407
  23160713.192 8 121710869.23508
                  23160714.610 8  90888280.47608  23160716.412 8  98791502.85308
  23160713.019 8  93259241.10608  23160713.651 8  92073655.86408
  22640083.565 7 118974897.52907  92707988.43405  22640084.999 5  22640083.288 5
  22640085.437 7  22640088.072 7  88845175.93207

  21001854.822 8 112109448.57808  87196319.27307
  21001859.883 7

  21062907.905 8 110686688.95908  86249578.51107  21062909.971 7  21062907.566 7
  21062909.938 7  21062907.016 8  82655863.91508

  19996941.149 8 107083143.57408  83287088.41708
  19996945.610 8

  23183419.446 6 123580707.55706


  23566720.907 8 123844174.41508
                  23566722.192 8  92481168.16908  23566723.409 8 100522970.94508
  23566720.314 8  94893700.12908  23566721.210 8  93687437.22308
  19244519.049 8 102945318.99708


  24309172.357 6 127745766.92206  99542268.52905  24309176.356 5  24309172.062 5
  24309177.073 6  24309175.898 7  95394698.36807

  21593077.617 7 115427547.24307


  22316848.745 8 119464327.83108  92916952.66407
  22316854.529 7

  27787489.355 6 146024281.19106
                  27787498.681 6 109044163.66206  27787495.121 6 118526182.22406
  27787495.737 6 111888779.91106  27787496.980 7 110466471.85907
  23756291.073 7 124840500.56207
                  23756292.525 8  93225263.29808  23756294.298 8 101331734.70808
  23756290.814 8  95657196.73608  23756291.570 8  94441235.59108
  22511615.930 7 118299627.44307  92181665.81505  22511617.650 5  22511615.743 5
  22511618.099 7  22511621.557 7  88340826.07807

  23324344.583 7 122570328.25507  95509398.80004  23324348.410 4  23324344.033 4
  23324348.815 6  23324346.682 7  91529840.66607

  37105981.790 7 194993280.06007
                  37105979.672 6 145611859.69306

  36826854.895 7 193526477.05707
                  36826863.250 7 144516526.81707

  25341822.505 7 133172687.63007
                  25341826.611 7  99447454.53807  25341824.925 7 108094490.99007
  25341824.825 7 102041695.40307  25341825.662 8 100744576.04508
  36982807.597 7 194345987.42107
                  36982807.156 6 145128488.30106

  23092106.173 7 123310609.71507  95908321.07207
  23092112.450 7

  27953746.125 6 146897956.60106
                  27953749.131 6 109696549.33106  27953748.236 6 119235356.61706
  27953747.397 6 112558192.85506  27953748.261 6 111127371.16706
  20525969.195 8 107865162.38208  84050971.35107  20525971.226 7  20525969.048 7
  20525971.840 8  20525968.303 8  80548933.37708

  25422133.091 6 133594214.35606 104099405.67403  25422136.187 3  25422132.913 3
  25422136.730 6  25422140.159 6  99761942.00706

  22057079.436 8 117949150.39408  91738299.88307
  22057084.993 7

  23304473.391 6 122465911.71606  95428038.23404  23304477.511 4  23304472.806 4
  23304478.076 6  23304476.345 7  91451875.19607

  24386930.426 6 128154400.75706  99860695.67003  24386933.683 3  24386930.042 3
  24386934.553 6

  23231505.303 7 122082455.88007  95129209.81005  23231504.208 5  23231504.284 5


 25  4 11  4  1 15.0000000  0 29G18E19E29G23R22G10R08R10E33R23G24R01
                                R07E13E26G28G08S33S31E07S35R09E12G32
                                G01R24G27G31G02
  24245000.620 6 127408618.63406  99279586.15003  24245005.190 3  24245000.303 3
  24245005.301 6  24245008.231 7  95142993.90307

  24691720.797 6 129756056.22206
                  24691723.562 6  96895900.61906  24691723.470 6 105321344.11006
  24691721.295 6  99423562.85506  24691722.145 7  98159749.31007
  23160809.481 8 121711375.76308
                  23160810.964 8  90888658.74008  23160812.770 8  98791914.00608
  23160809.411 8  93259629.24508  23160810.027 8  92074039.06608
  22645429.054 7 119002989.24907  92729878.07305  22645430.753 5  22645428.768 5
  22645430.639 7  22645433.719 7  88866153.50407

  21012295.079 7 112165180.94907  87239666.63807
  21012300.757 7

  21063252.060 8 110688497.90708  86250988.08707  21063254.174 7  21063251.721 7
  21063254.282 7  21063251.220 8  82657214.76108

  19999851.892 8 107098728.93908  83299210.37908
  19999855.553 8

  23175356.106 6 123537726.48306


  23563263.263 8 123826003.92608
                  23563264.455 8  92467599.30908  23563265.624 8 100508222.18008
  23563262.541 8  94879777.29408  23563263.461 8  93673691.37608
  19246298.522 8 102954839.07208


  24318020.059 6 127792264.14806  99578500.16205  24318024.516 5  24318019.773 5
  24318024.923 6  24318023.882 7  95429420.36907

  21588026.222 7 115400543.02007


  22324695.303 8 119506333.33608  92949623.59807
  22324701.354 7

  27795429.977 6 146066008.05506
                  27795438.931 6 109075323.29606  27795434.890 6 118560051.40006
  27795435.648 6 111920752.40506  27795437.509 7 110498037.92207
  23760210.534 7 124861097.94007
                  23760212.078 8  93240644.46308  23760213.857 8 101348453.35708
  23760210.385 8  95672979.14308  23760211.131 8  94456817.37708
  22502523.776 7 118251851.51207  92144437.86905  22502526.246 5  22502523.566 5
  22502526.395 7  22502529.933 7  88305149.30707

  23327122.360 7 122584927.89607  95520775.15104  23327126.674 4  23327121.819 4
  23327127.610 6  23327124.837 7  91540743.00007

  37105982.371 7 194993278.46607
                  37105979.368 6 145611833.53416

  36826852.065 7 193526464.20607
                  36826860.898 7 144516517.16107

  25348153.014 7 133205953.92007
                  25348157.084 7  99472296.23707  25348155.251 7 108121492.84107
  25348155.086 7 102067185.14907  25348156.031 8 100769741.76808
  36982814.613 7 194346026.29207
                  36982814.445 6 145128517.32106

  23090029.735 7 123299520.22607  95899695.97107
  23090035.885 7

  27945839.716 6 146856406.85106
                  27945842.440 6 109665522.00906  27945841.219 6 119201631.22606
  27945840.854 6 112526356.09906  27945841.596 6 111095939.13106
  20526686.983 8 107868935.71408  84053911.62407  20526689.230 7  20526686.831 7
  20526689.813 8  20526686.364 8  80551751.14808

  25412121.362 6 133541603.50106 104058410.29203  25412125.239 3  25412121.188 3
  25412124.749 5  25412128.465 6  99722654.75006

  22047224.760 8 117896455.29608  91697314.87407
  22047231.079 7

  23311664.345 6 122503702.14006  95457485.30504  23311668.891 4  23311663.751 4
  23311669.707 7  23311667.660 7  91480095.31207

  24375998.670 6 128096955.71506  99815933.42303  24376002.390 3  24375998.299 3
  24376002.800 6

  23223779.563 7 122041858.55207  95097575.57205  23223778.832 5  23223778.539 5


 25  4 11  4  1 30.0000000  0 29G18E19E29G23R22G10R08R10E33R23G24R01
                                R07E13E26G28G08S33S31E07S35R09E12G32
                                G01R24G27G31G02
  24255318.318 6 127462835.85306  99321833.27703  24255322.037 3  24255317.992 3
  24255322.905 6  24255325.556 7  95183480.70407

  24686209.770 6 129727095.49406
                  24686212.306 6  96874274.14006  24686212.349 6 105297837.06106
  24686210.149 6  99401372.19506  24686211.062 7  98137840.74107
  23160919.561 8 121711953.12008
                  23160920.862 8  90889089.90808  23160922.627 8  98792382.65408
  23160919.249 8  93260071.65008  23160919.891 8  92074475.85208
  22650781.714 7 119031116.42707  92751795.33605  22650783.119 5  22650781.428 5
  22650783.330 7  22650786.157 7  88887157.54307

  21022755.287 7 112221017.27307  87283094.86507
  21022760.642 7

  21063603.551 8 110690344.46608  86252426.97407  21063605.558 7  21063603.212 7
  21063605.690 7  21063602.558 8  82658593.69808

  20002772.701 8 107114370.37708  83311375.96308
  20002776.710 8

  23167305.275 6 123494810.63706


  23559819.288 8 123807905.66708
                  23559820.456 8  92454084.39508  23559821.704 8 100493532.04708
  23559818.501 8  94865909.81208  23559819.458 8  93660000.17708
  19248116.265 8 102964563.70008


  24326884.388 6 127838847.48106  99614798.88305  24326888.927 5  24326884.107 5
  24326889.621 6  24326888.575 7  95464206.63307

  21582987.304 7 115373606.81107


  22332540.354 8 119548325.97808  92982284.53607
  22332546.349 7

  27803375.490 6 146107762.52406
                  27803384.619 6 109106503.53206  27803381.118 6 118593942.98506
  27803381.736 6 111952746.04706  27803383.054 7 110529624.86607
  23764145.713 7 124881776.71607
                  23764147.127 8  93256086.39808  23764148.949 8 101365238.07708
  23764145.391 8  95688823.91708  23764146.172 8  94472460.73108
  22493443.580 7 118204132.19807  92107254.04205  22493445.499 5  22493443.366 5
  22493445.511 7  22493449.132 7  88269514.80307

  23329920.940 7 122599633.15507  95532233.79904  23329925.024 4  23329920.395 4
  23329926.000 6  23329923.120 7  91551724.20207

  37105979.295 7 194993275.48807
                  37105978.751 6 145611831.24606

  36826851.765 7 193526450.08907
                  36826858.103 7 144516506.70107

  25354487.468 7 133239241.05007
                  25354491.412 7  99497153.51607  25354489.830 7 108148511.62307
  25354489.549 7 102092690.87307  25354490.375 8 100794923.27008
  36982821.352 7 194346062.82107
                  36982821.340 6 145128544.49906

  23087981.242 7 123288584.34707  95891190.32607
  23087987.964 7

  27937933.341 6 146814859.08706
                  27937936.125 6 109634496.15806  27937935.026 6 119167907.44706
  27937934.551 6 112494520.89606  27937935.293 6 111064508.59806
  20527421.971 8 107872798.16908  84056921.34507  20527424.213 7  20527421.819 7
  20527424.491 8  20527421.360 8  80554635.46408

  25402109.067 6 133488988.90406 104017411.92403  25402112.619 3  25402108.884 3
  25402112.145 6  25402115.963 6  99683364.67306

  22037390.607 8 117843863.92008  91656410.51607
  22037395.436 7

  23318864.752 6 122541540.98106  95486970.10604  23318869.491 4  23318864.162 4
  23318869.476 7  23318868.088 7  91508351.57107

  24365063.795 6 128039497.69806  99771161.06103  24365068.173 3  24365063.384 3
  24365068.978 6

  23216065.079 7 122001315.77007  95065983.83905  23216063.454 5  23216064.060 5


 25  4 11  4  1 45.0000000  0 29G18E19E29G23R22G10R08R10E33R23G24R01
                                R07E13E26G28G08S33S31E07S35R09E12G32
                                G01R24G27G31G02
  24265643.686 6 127517095.50606  99364113.46703  24265647.595 3  24265643.373 3
  24265647.711 6  24265650.970 7  95223999.21407

  24680709.876 6 129698196.29506
                  24680712.896 6  96852693.60706  24680712.976 6 105274379.94506
  24680710.733 6  99379228.69006  24680711.668 7  98115978.72007
  23161043.515 8 121712605.56608
                  23161044.942 8  90889577.13808  23161046.701 8  98792912.24908
  23161043.406 8  93260571.58408  23161044.032 8  92074969.43408
  22656141.275 7 119059283.44807  92773743.64805  22656143.083 5  22656140.967 5
  22656143.238 7  22656146.147 7  88908191.34007

  21033235.284 7 112276961.50807  87326607.01807
  21033240.571 7

  21063962.911 8 110692233.11808  86253898.65607  21063964.956 7  21063962.572 7
  21063965.075 7  21063962.006 8  82660004.06208

  20005704.131 8 107130071.61508  83323588.05008
  20005708.848 8

  23159267.124 6 123451965.25706


  23556390.069 8 123789884.18508
                  23556391.052 8  92440626.81008  23556392.396 8 100478904.23408
  23556389.171 8  94852101.16508  23556390.072 8  93646367.06108
  19249973.887 8 102974497.45308


  24335766.143 6 127885520.91906  99651167.81305  24335770.665 5  24335765.866 5
  24335771.978 6  24335770.167 7  95499060.19507

  21577960.903 7 115346742.57107


  22340382.734 8 119590310.07208  93014938.82007
  22340389.206 7

  27811326.888 6 146149548.78306
                  27811336.579 6 109137707.49206  27811332.444 6 118627860.37406
  27811333.728 6 111984764.03706  27811334.932 7 110561235.83807
  23768097.141 7 124902541.23207
                  23768098.494 8  93271592.36508  23768100.204 8 101382092.38508
  23768096.797 8  95704734.38408  23768097.526 8  94488168.94908
  22484374.819 7 118156474.20107  92070117.99505  22484376.346 5  22484374.605 5
  22484376.671 7  22484380.193 7  88233926.11507

  23332740.117 7 122614448.07707  95543777.90704  23332744.123 4  23332739.576 4
  23332745.055 6  23332742.321 7  91562787.31107

  37105979.764 7 194993274.77107
                  37105978.639 6 145611830.70206

  36826845.791 7 193526438.60407
                  36826855.984 7 144516498.21007

  25360826.607 7 133272553.23807
                  25360830.513 7  99522029.50007  25360828.916 7 108175550.73007
  25360828.667 7 102118215.79507  25360829.472 8 100820123.72208
  36982828.739 7 194346102.51607
                  36982828.790 6 145128574.28006

  23085962.934 7 123277807.24507  95882808.17207
  23085969.020 7

  27930028.541 6 146773317.86906
                  27930030.840 6 109603475.16906  27930029.787 6 119134188.97706
  27930029.210 6 112462690.66106  27930030.225 6 111033082.98706
  20528174.824 8 107876753.94008  84060003.77607  20528176.962 7  20528174.668 7
  20528177.523 8  20528174.133 8  80557589.46508

  25392097.259 6 133436375.13306 103976414.23903  25392100.325 3  25392097.085 3
  25392101.158 5  25392103.741 6  99644075.23406

  22027574.773 8 117791380.85908  91615590.41907
  22027580.855 7

  23326075.653 6 122579432.21106  95516495.72304  23326079.848 4  23326075.063 4
  23326079.996 7  23326078.629 7  91536646.96007

  24354129.035 6 127982031.25006  99726382.11603  24354132.471 3  24354128.602 3
  24354133.568 6

  23208361.283 7 121960832.15307  95034438.21205  23208359.627 5  23208360.251 5


 25  4 11  4  2  0.0000000  0 29G18E19E29G23R22G10R08R10E33R23G24R01
                                R07E13E26G28G08S33S31E07S35R09E12G32
                                G01R24G27G31G02
  24275976.120 6 127571396.26206  99406425.68103  24275980.830 3  24275975.803 3
  24275981.190 6  24275984.099 7  95264548.42307

  24675222.493 6 129669357.52206
                  24675225.080 6  96831158.19406  24675225.007 6 105250971.88106
  24675223.041 6  99357131.48606  24675223.789 7  98094162.41207
  23161181.911 8 121713331.89608
                  23161183.188 8  90890119.54408  23161184.903 8  98793501.81408
  23161181.561 8  93261128.14108  23161182.228 8  92075518.91608
  22661508.866 7 119087489.24607  92795722.17405  22661510.511 5  22661508.558 5
  22661510.623 7  22661513.539 7  88929254.10307

  21043735.587 7 112333012.05707  87370201.85807
  21043741.209 7

  21064330.109 8 110694162.83808  86255402.34007  21064332.143 7  21064329.770 7
  21064332.243 7  21064329.180 8  82661445.09308

  20008647.200 8 107145831.58208  83335845.81908
  20008652.131 8

  23151242.622 6 123409189.70806


  23552974.910 8 123771938.57108
                  23552976.127 8  92427225.88608  23552977.381 8 100464338.00008
  23552974.248 8  94838350.64108  23552975.107 8  93632791.33808
  19251869.476 8 102984639.11108


  24344664.739 6 127932282.94006  99687605.77305  24344669.346 5  24344664.462 5
  24344669.940 6  24344668.535 7  95533979.92407

  21572949.106 7 115319949.61707


  22348224.276 8 119632284.64608  93047585.70507
  22348229.872 7

  27819284.194 6 146191365.61306
                  27819293.768 6 109168934.30706  27819290.155 6 118661802.57106
  27819290.869 6 112016805.46406  27819292.269 7 110592869.95507
  23772064.610 7 124923390.34207
                  23772065.891 8  93287161.50608  23772067.704 8 101399015.37108
  23772064.232 8  95720709.68208  23772064.982 8  94503941.16808
  22475317.005 7 118108876.84307  92033029.19805  22475318.762 5  22475316.800 5
  22475318.800 7  22475322.656 7  88198382.69107

  23335580.075 7 122629371.40107  95555406.48204  23335583.872 4  23335579.525 4
  23335584.755 6  23335582.047 7  91573931.35607

  37105977.676 7 194993275.66707
                  37105978.782 6 145611831.49006

  36826848.541 7 193526428.73207
                  36826854.168 7 144516490.73607

  25367169.994 7 133305889.18707
                  25367174.030 7  99546923.22407  25367172.145 7 108202609.13007
  25367172.301 7 102143758.92307  25367173.086 8 100845342.14608
  36982835.835 7 194346143.69907
                  36982836.709 6 145128605.08706

  23083974.154 7 123267187.68307  95874548.55807
  23083980.608 7

  27922124.304 6 146731782.17606
                  27922127.120 6 109572458.34206  27922126.169 5 119100474.99005
  27922124.895 6 112430864.66806  27922126.194 6 111001661.57906
  20528945.182 8 107880801.74408  84063157.92107  20528947.212 7  20528945.030 7
  20528947.690 8  20528944.353 8  80560612.18908

  25382084.799 6 133383761.34006 103935416.52903  25382087.924 3  25382084.598 3
  25382088.964 5  25382091.932 6  99604785.76506

  22017780.852 8 117739005.54808  91574854.11407
  22017786.316 7

  23333295.804 6 122617374.34806  95546061.02004  23333300.048 4  23333295.219 4
  23333300.324 7  23333298.757 7  91564980.36607

  24343191.480 6 127924555.71306  99681596.09504  24343195.374 4  24343191.007 4
  24343195.794 6

  23200668.695 7 121920406.97307  95002938.12505  23200666.942 5  23200667.658 5


 25  4 11  4  2 15.0000000  0 29G18E19E29G23R22G10R08R10E33R23G24R01
                                R07E13E26G28G08S33S31E07S35R09E12G32
                                G01R24G27G31G02
  24286316.602 6 127625734.11806  99448766.82203  24286320.742 3  24286316.263 3
  24286321.244 6  24286324.239 7  95305125.32707

  24669745.396 6 129640575.77106
                  24669748.046 6  96809665.39006  24669747.937 6 105227610.09806
  24669745.813 6  99335077.97706  24669746.745 7  98072389.25607
  23161333.448 8 121714128.26208
                  23161334.702 8  90890714.25108  23161336.511 8  98794148.22808
  23161333.141 8  93261738.36108  23161333.748 8  92076121.37908
  22666882.985 7 119115730.17707  92817728.08105  22666884.645 5  22666882.681 5
  22666884.716 7  22666887.684 7  88950343.08907

  21054255.814 8 112389164.63608  87413876.05907
  21054259.961 7

  21064704.529 8 110696130.03508  86256935.22807  21064706.499 7  21064704.190 7
  21064706.612 7  21064703.523 8  82662914.11508

  20011600.701 8 107161646.13808  83348146.02808
  20011604.927 8

  23143231.037 6 123366480.78006


  23549573.875 8 123754065.25408
                  23549574.923 8  92413878.94808  23549576.165 8 100449830.45108
  23549573.056 8  94824655.52408  23549573.906 8  93619270.31008
  19253803.319 8 102994984.93808


  24353579.184 6 127979129.53406  99724109.63605  24353584.035 5  24353578.907 5
  24353584.000 6  24353583.343 7  95568962.79407

  21567949.889 7 115293223.71807


  22356063.187 8 119674245.66708  93080222.05107
  22356069.607 7

  27827246.943 6 146233209.12206
                  27827256.565 6 109200181.04706  27827252.874 6 118695766.43806
  27827253.321 6 112048867.33906  27827254.950 7 110624524.27007
  23776047.457 7 124944320.28507
                  23776048.750 8  93302791.01708  23776050.511 8 101416003.96508
  23776047.165 8  95736746.91508  23776047.825 8  94519774.54008
  22466270.200 7 118061336.73207  91995985.00805  22466272.119 5  22466269.981 5
  22466272.230 7  22466276.070 7  88162882.02207

  23338439.719 7 122644399.06407  95567116.36004  23338443.412 4  23338439.161 4
  23338444.366 6  23338441.715 7  91585153.33107

  37105975.704 7 194993274.11207
                  37105978.442 6 145611830.20106

  36826845.451 7 193526416.31607
                  36826851.736 7 144516481.49607

  25373517.752 7 133339244.99307
                  25373521.462 7  99571831.78207  25373519.963 7 108229683.64907
  25373519.690 7 102169317.26707  25373520.487 8 100870575.59908
  36982840.540 7 194346182.12807
                  36982844.163 6 145128633.79606

  23082014.037 7 123256722.30107  95866408.86107
  23082020.760 7

  27914220.737 6 146690248.51406
                  27914223.545 6 109541442.99706  27914222.030 6 119066762.65406
  27914221.432 6 112399040.23806  27914222.534 6 110970241.68906
  20529732.372 8 107884937.68508  84066380.74807  20529734.244 7  20529732.225 7
  20529734.748 8  20529731.416 8  80563700.73908

  25372072.678 6 133331144.05506 103894416.09603  25372075.335 3  25372072.464 3
  25372076.273 5  25372079.328 6  99565493.71106

  22008006.336 8 117686734.94908  91534199.27407
  22008011.452 7

  23340524.541 6 122655363.27006  95575662.78004  23340529.047 4  23340523.947 4
  23340530.004 7  23340527.834 7  91593348.72407

  24332251.925 6 127867067.62506  99636800.29403  24332255.442 3  24332251.452 3
  24332256.279 6

  23192985.994 7 121880036.75607  94971480.85705  23192984.655 5  23192984.948 5


 25  4 11  4  2 30.0000000  0 29G18E19E29G23R22G10R08R10E33R23G24R01
                                R07E13E26G28G08S33S31E07S35R09E12G32
                                G01R24G27G31G02
  24296664.514 6 127680114.33506  99491140.97003  24296669.185 3  24296664.184 3
  24296669.419 6  24296672.606 7  95345733.85507

  24664280.486 6 129611856.30806
                  24664282.870 6  96788219.07806  24664283.044 6 105204298.86506
  24664280.676 6  99313072.19206  24664281.563 7  98050663.20707
  23161499.319 8 121715000.04308
                  23161500.576 8  90891365.27408  23161502.384 8  98794855.85508
  23161499.029 8  93262406.36208  23161499.632 8  92076780.89108
  22672264.901 7 119144011.74007  92839765.64205  22672266.426 5  22672264.606 5
  22672266.391 7  22672269.383 7  88971462.42007

  21064794.497 8 112445424.37408  87457633.60407
  21064799.696 7

  21065087.100 8 110698140.25608  86258501.64207  21065089.006 7  21065086.756 7
  21065089.103 7  21065086.101 8  82664415.25908

  20014564.951 8 107177520.58808  83360492.83907
  20014569.830 7

  23135232.253 6 123323844.43806


  23546187.522 8 123736269.93808
                  23546188.593 8  92400590.25408  23546189.857 8 100435386.21208
  23546186.617 8  94811020.16408  23546187.555 8  93605808.28308
  19255776.775 8 103005540.39408


  24362511.034 6 128026065.81206  99760683.38505  24362515.542 5  24362510.762 5
  24362515.396 6  24362514.731 7  95604012.63707

  21562963.622 7 115266570.62907


  22363899.701 8 119716198.75008  93112852.20507
  22363906.016 7

  27835215.678 6 146275084.68806
                  27835224.800 6 109231451.71206  27835221.527 6 118729756.31306
  27835222.665 6 112080953.77606  27835223.770 7 110656202.82107
  23780046.559 7 124965336.55407
                  23780048.039 8  93318484.98208  23780049.868 8 101433062.62408
  23780046.429 8  95752850.28508  23780047.092 8  94535673.20708
  22457235.692 7 118013859.73407  91958989.99605  22457237.421 5  22457235.460 5
  22457237.706 7  22457241.389 7  88127428.48607

  23341320.136 7 122659536.39207  95578911.68604  23341324.080 4  23341319.560 4
  23341324.965 6  23341322.235 7  91596457.19207

  37105980.989 7 194993275.85307
                  37105978.805 6 145611831.44706

  36826840.246 7 193526407.63907
                  36826850.086 7 144516474.97507

  25379869.557 7 133372625.97507
                  25379873.762 7  99596759.14107  25379871.979 7 108256778.60807
  25379871.805 7 102194894.90407  25379872.682 8 100895828.09608
  36982852.331 7 194346224.33107
                  36982852.056 6 145128665.18106

  23080084.867 7 123246416.86307  95858393.54907
  23080090.837 7

  27906318.390 6 146648722.53806
                  27906321.194 6 109510433.42906  27906319.819 6 119033056.54906
  27906319.486 6 112367221.69706  27906320.238 6 110938827.63406
  20530536.969 8 107889167.07708  84069676.39107  20530539.025 7  20530536.822 7
  20530539.467 8  20530536.240 8  80566859.06908

  25362060.174 6 133278528.99206 103853417.40003  25362062.674 3  25362059.982 3
  25362063.193 6  25362066.959 6  99526203.30806

  21998251.662 8 117634574.84908  91493630.34807
  21998257.126 7

  23347763.404 6 122693404.09206  95605304.99204  23347767.902 4  23347762.805 4
  23347768.425 6  23347766.654 7  91621755.84107

  24321311.179 6 127809572.83406  99591999.25803  24321314.562 3  24321310.706 3
  24321314.748 6

  23185315.339 7 121839727.25207  94940070.90105  23185313.989 5  23185314.284 5


 25  4 11  4  2 45.0000000  0 29G18E19E29G23R22G10R08R10E33R23G24R01
                                R07E13E26G28G08S33S31E07S35R09E12G32
                                G01R24G27G31G02
  24307019.854 6 127734531.27006  99533543.71103  24307025.007 3  24307019.541 3
  24307024.737 6  24307027.620 7  95386369.82707

  24658825.818 6 129583193.82306
                  24658828.527 6  96766815.32606  24658828.565 6 105181033.91206
  24658826.667 6  99291110.07506  24658827.226 7  98028980.27307
  23161678.414 8 121715941.78408
                  23161679.766 8  90892068.53408  23161681.489 8  98795620.26308
  23161678.231 8  93263127.97308  23161678.824 8  92077493.32608
  22677653.438 7 119172328.68207  92861830.78005  22677655.085 5  22677653.166 5
  22677655.457 7  22677657.922 7  88992608.16207

  21075352.316 8 112501785.41108  87501469.94807
  21075357.915 7

  21065476.732 8 110700188.26608  86260097.49907  21065478.757 7  21065476.393 7
  21065478.650 7  21065475.758 8  82665944.62708

  20017539.784 8 107193449.25308  83372881.81208
  20017544.170 8

  23127246.475 6 123281276.12106


  23542814.991 8 123718547.45008
                  23542816.080 8  92387355.94408  23542817.376 8 100421001.08708
  23542814.189 8  94797440.60908  23542815.062 8  93592401.35008
  19257787.643 8 103016299.66708


  24371458.705 6 128073086.07706  99797322.58005  24371463.219 5  24371458.433 5
  24371462.804 6  24371462.314 7  95639125.20907

  21557990.004 7 115239984.59507


  22371734.829 8 119758137.83008  93145471.47307
  22371741.258 7

  27843189.657 5 146316986.85605
                  27843198.793 6 109262742.23406  27843194.439 6 118763767.75106
  27843196.040 6 112113060.55506  27843197.335 7 110687901.47207
  23784061.364 7 124986433.76807
                  23784062.706 8  93334239.39608  23784064.686 8 101450186.98808
  23784061.072 8  95769015.69008  23784061.760 8  94551633.11708
  22448211.799 7 117966440.91407  91922040.31505  22448213.901 5  22448211.540 5
  22448214.476 7  22448217.881 7  88092018.38007

  23344219.997 6 122674777.78006  95590788.09404  23344224.446 4  23344219.434 4
  23344224.714 6  23344222.614 7  91607838.74807

  37105980.184 7 194993276.26907
                  37105978.755 6 145611832.04106

  36826842.164 7 193526396.58707
                  36826847.970 7 144516466.74107

  25386225.717 7 133406026.63607
                  25386229.719 7  99621701.19107  25386227.922 7 108283889.52507
  25386227.881 7 102220487.61607  25386228.611 8 100921095.47808
  36982856.848 7 194346264.32507
                  36982859.635 6 145128695.14906

  23078184.657 7 123236266.14007  95850498.59307
  23078190.452 7

  27898416.952 6 146607199.13506
                  27898419.359 6 109479425.74406  27898418.141 6 118999352.53406
  27898417.661 6 112335405.13306  27898418.532 6 110907415.51206
  20531358.462 8 107893484.43308  84073040.58007  20531360.574 7  20531358.319 7
  20531361.094 8  20531357.830 8  80570083.08608

  25352047.294 6 133225911.03006 103812416.42503  25352050.354 3  25352047.089 3
  25352050.115 6  25352053.845 6  99486910.71806

  21988517.427 8 117582520.53608  91453143.73207
  21988523.007 7

  23355011.293 7 122731491.11807  95634983.19404  23355015.517 4  23355010.685 4
  23355017.169 7  23355014.405 7  91650197.44507

  24310368.270 6 127752066.39306  99547189.15603  24310371.344 3  24310367.814 3
  24310371.317 6

  23177655.327 7 121799473.42107  94908704.32905  23177653.970 5  23177654.263 5


 25  4 11  4  3  0.0000000  0 29G18E19E29G23R22G10R08R10E33R23G24R01
                                R07E13E26G28G08S33S31E07S35R09E12G32
                                G01R24G27G31G02
  24317381.703 6 127788984.33206  99575974.62804  24317387.018 4  24317381.404 4
  24317387.275 6  24317389.438 7  95427032.76607

  24653382.103 6 129554587.98706
                  24653384.920 6  96745453.85306  24653384.856 6 105157814.90006
  24653382.920 6  99269191.35606  24653383.647 7  98007340.17607
  23161870.896 8 121716953.02708
                  23161872.232 8  90892823.70708  23161873.848 8  98796441.09308
  23161870.620 8  93263902.84408  23161871.247 8  92078258.34808
  22683048.280 7 119200680.68307  92883923.23205  22683050.281 5  22683048.008 5
  22683050.377 7  22683053.114 7  89013780.10107

  21085930.320 7 112558246.81107  87545384.34107
  21085935.262 7

  21065873.655 8 110702273.84508  86261722.63307  21065875.631 7  21065873.311 7
  21065875.728 7  21065872.619 8  82667502.04708

  20020524.268 8 107209431.46308  83385312.43808
  20020528.551 8

  23119273.022 6 123238775.68906


  23539456.218 8 123700897.64608
                  23539457.450 8  92374175.90908  23539458.704 8 100406674.95708
  23539455.556 8  94783916.74908  23539456.395 8  93579049.40208
  19259837.257 8 103027262.59208


  24380421.968 6 128120189.64306  99834026.67805  24380426.577 5  24380421.691 5
  24380427.028 6  24380425.930 7  95674299.96207

  21553028.888 7 115213465.30407


  22379566.481 8 119800062.89708  93178079.84907
  22379572.320 7

  27851168.703 6 146358915.05706
                  27851177.629 6 109294052.22106  27851174.009 6 118797800.37506
  27851175.169 6 112145187.34206  27851176.203 7 110719619.85707
  23788091.132 8 125007611.56208
                  23788092.711 8  93350053.97308  23788094.641 8 101467376.74708
  23788091.088 8  95785242.82408  23788091.769 8  94567653.97208
  22439199.657 7 117919080.27607  91885135.98105  22439201.502 5  22439199.389 5
  22439201.619 7  22439205.256 7  88056651.73307

  23347140.570 7 122690122.58007  95602745.08804  23347144.353 4  23347140.016 4
  23347145.296 6  23347142.665 7  91619297.53807

  37105979.362 7 194993273.82407
                  37105978.496 6 145611830.20406

  36826837.058 7 193526383.10407
                  36826845.435 7 144516456.65307

  25392585.353 7 133439446.44607
                  25392589.287 7  99646657.54007  25392587.544 7 108311016.00007
  25392587.281 7 102246095.00007  25392588.179 8 100946377.34408
  36982867.146 7 194346302.17807
                  36982866.843 6 145128723.41906

  23076311.782 7 123226270.15707  95842723.97507
  23076317.976 7

  27890515.799 6 146565678.06906
                  27890518.077 6 109448419.83106  27890516.776 6 118965650.40506
  27890516.207 6 112303590.36206  27890517.269 6 110876005.17106
  20532196.642 8 107897889.21508  84076472.89207  20532198.757 7  20532196.495 7
  20532199.105 8  20532195.986 8  80573372.38808

  25342033.273 6 133173290.06306 103771413.13303  25342036.843 3  25342033.086 3
  25342036.706 6  25342040.184 6  99447615.90006

  21978802.096 8 117530572.26508  91412739.57107
  21978808.316 7

  23362267.648 6 122769623.53406  95664696.76605  23362272.043 5  23362267.018 5
  23362273.133 7  23362270.664 7  91678672.96307

  24299422.643 6 127694548.23106  99502369.90203  24299425.849 3  24299422.183 3
  24299426.124 6

  23170005.720 7 121759275.13507  94877381.03705  23170004.535 5  23170004.643 5


 25  4 11  4  3 15.0000000  0 29G18E19E29G23R22G10R08R10E33R23G24R01
                                R07E13E26G28G08S33S31E07S35R09E12G32
                                G01R24G27G31G02
  24327751.736 6 127843472.76106  99618433.07903  24327755.785 3  24327751.423 3
  24327755.565 6  24327759.272 7  95467722.10007

  24647949.285 6 129526038.50906
                  24647952.115 6  96724134.49906  24647952.065 6 105134641.67506
  24647950.107 6  99247315.83206  24647950.836 7  97985742.73807
  23162076.493 8 121718033.16808
                  23162077.728 8  90893630.31808  23162079.532 8  98797317.83908
  23162076.155 8  93264730.49608  23162076.776 8  92079075.48008
  22688450.381 7 119229067.31607  92906042.66305  22688452.095 5  22688450.113 5
  22688452.340 7  22688455.013 7  89034977.89107

  21096525.720 8 112614807.75508  87589376.16207
  21096530.974 7

  21066277.560 8 110704396.56808  86263376.70807  21066279.589 7  21066277.212 7
  21066279.598 7  21066276.585 8  82669087.20608

  20023518.571 8 107225466.48708  83397784.12708
  20023522.927 8

  23111313.521 6 123196343.43106


  23536111.352 8 123683320.18508
                  23536112.430 8  92361049.90708  23536113.760 8 100392407.55208
  23536110.626 8  94770448.32108  23536111.501 8  93565752.18808
  19261924.679 8 103038428.55508


  24389401.210 6 128167375.67206  99870795.04505  24389405.725 5  24389400.933 5
  24389406.398 6  24389405.117 7  95709536.32807

  21548080.160 7 115187012.09007


  22387395.870 8 119841973.00008  93210676.58407
  22387401.647 7

  27859151.520 6 146400868.76506
                  27859161.000 6 109325381.22606  27859158.222 6 118831853.67206
  27859158.361 6 112177333.62706  27859159.570 7 110751357.50007
  23792136.467 8 125028869.40208
                  23792137.951 8  93365928.33808  23792139.965 8 101484631.49408
  23792136.324 8  95801531.29908  23792137.005 8  94583735.39208
  22430198.552 7 117871777.69907  91848276.88205  22430200.099 5  22430198.298 5
  22430200.382 7  22430203.811 7  88021328.44507

  23350080.080 7 122705570.11907  95614782.14204  23350083.962 4  23350079.517 4
  23350084.663 6  23350082.244 7  91630833.03407

  37105977.595 7 194993267.96807
                  37105977.070 6 145611825.63806

  36826835.801 7 193526366.81207
                  36826842.256 7 144516444.59507

  25398948.486 7 133472884.72807
                  25398952.320 7  99671627.69107  25398950.780 7 108338157.46707
  25398950.431 7 102271716.54807  25398951.293 8 100971673.19208
  36982872.995 7 194346337.02807
                  36982873.484 6 145128749.57106

  23074468.604 7 123216428.51607  95835069.41607
  23074474.639 7

  27882614.832 6 146524159.01806
                  27882617.421 6 109417415.43606  27882616.164 5 118931949.95105
  27882615.705 6 112271777.13506  27882616.498 6 110844596.35506
  20533051.355 8 107902380.76908  84079972.82007  20533053.449 7  20533051.208 7
  20533053.671 8  20533050.670 8  80576726.49108

  25332019.268 6 133120665.85306 103730407.29903  25332022.376 3  25332019.103 3
  25332022.539 6  25332025.974 6  99408318.64806

  21969107.313 8 117478729.86708  91372417.76407
  21969113.702 7

  23369532.343 6 122807800.53006  95694445.07904  23369537.071 4  23369531.717 4
  23369537.407 7  23369535.635 7  91707181.74907

  24288475.331 6 127637018.21806  99457541.41103  24288477.855 3  24288474.907 3
  24288479.026 6

  23162367.280 7 121719132.29607  94846100.95705  23162365.671 5  23162366.194 5


 25  4 11  4  3 30.0000000  0 29G18E19E29G23R22G10R08R10E33R23G24R01
                                R07E13E26G28G08S33S31E07S35R09E12G32
                                G01R24G27G31G02
  24338128.263 6 127898002.65606  99660923.85004  24338131.975 4  24338127.959 4
  24338132.470 6  24338135.855 7  95508442.42707

  24642528.232 6 129497551.76906
                  24642531.113 6  96702861.98306  24642531.249 6 105111519.35006
  24642529.327 6  99225488.35406  24642529.919 7  97964192.74107
  23162296.318 8 121719188.47908
                  23162297.575 8  90894493.06908  23162299.345 8  98798255.60808
  23162295.939 8  93265615.74908  23162296.610 8  92079949.48308
  22693860.066 7 119257495.00307  92928194.09105  22693861.685 5  22693859.798 5
  22693861.509 7  22693864.594 7  89056206.33907

  21107141.552 7 112671474.17207  87633450.01807
  21107146.553 7

  21066689.914 8 110706562.93308  86265064.79507  21066691.846 7  21066689.570 7
  21066691.561 7  21066688.833 8  82670704.95608

  20026524.413 8 107241560.50908  83410301.70208
  20026528.129 8

  23103366.793 6 123153986.31306


  23532781.641 8 123665821.66808
                  23532782.652 8  92347982.84208  23532784.015 8 100378204.22208
  23532780.711 8  94757040.38008  23532781.618 8  93552514.68508
  19264051.302 8 103049804.07608


  24398397.200 6 128214650.13806  99907632.32305  24398401.615 5  24398396.928 5
  24398402.113 6  24398401.214 7  95744838.73207

  21543144.674 7 115160631.29307


  22395223.586 8 119883874.68408  93243266.76407
  22395229.035 7

  27867141.226 6 146442854.16706
                  27867150.821 6 109356733.89006  27867146.808 6 118865932.67206
  27867147.841 6 112209504.21806  27867149.358 7 110783119.12407
  23796198.266 8 125050213.66508
                  23796199.551 8  93381867.23808  23796201.477 8 101501956.38008
  23796197.934 8  95817885.99508  23796198.691 8  94599882.19008
  22421209.277 7 117824539.95507  91811468.29905  22421211.051 5  22421209.027 5
  22421211.246 7  22421214.713 7  87986053.56107

  23353039.735 7 122721126.49907  95626903.99604  23353044.087 4  23353039.159 4
  23353045.110 6  23353042.613 7  91642449.83007

  37105979.576 7 194993266.16507
                  37105976.783 6 145611824.53806

  36826830.131 7 193526354.06007
                  36826839.930 7 144516434.90207

  25405316.095 7 133506347.73207
                  25405320.106 7  99696616.29207  25405318.351 7 108365318.99207
  25405318.246 7 102297357.02507  25405319.094 8 100996987.73308
  36982880.006 7 194346374.79607
                  36982880.612 6 145128777.65606

  23072655.918 7 123206748.14907  95827540.29107
  23072662.469 7

  27874715.487 6 146482648.62406
                  27874718.306 6 109386417.47106  27874716.891 6 118898256.50106
  27874716.286 6 112239970.52006  27874717.323 6 110813194.06806
  20533923.774 8 107906965.31208  84083545.20707  20533925.841 7  20533923.622 7
  20533926.328 8  20533923.103 8  80580150.03108

  25322005.400 6 133068045.01906 103689404.10203  25322008.683 3  25322005.240 3
  25322009.536 6  25322012.744 6  99369023.93806

  21959433.810 8 117427000.16708  91332183.60607
  21959439.412 7

  23376807.028 6 122846028.07806  95724232.77405  23376811.506 5  23376806.394 5
  23376812.195 7  23376809.985 7  91735728.28907

  24277526.306 6 127579483.20906  99412709.03704  24277529.749 4  24277525.900 4
  24277529.620 6

  23154739.445 7 121679051.47107  94814869.18605  23154738.550 5  23154738.354 5


 25  4 11  4  3 45.0000000  0 29G18E19E29G23R22G10R08R10E33R23G24R01
                                R07E13E26G28G08S33S31E07S35R09E12G32
                                G01R24G27G31G02
  24348511.197 6 127952567.30706  99703441.70504  24348515.167 4  24348510.907 4
  24348516.372 6  24348518.857 7  95549188.69907

  24637118.500 6 129469121.12406
                  24637121.061 6  96681631.35506  24637121.057 6 105088442.56706
  24637118.892 6  99203703.89506  24637119.689 7  97942685.19807
  23162529.072 8 121720412.35608
                  23162530.466 8  90895407.02508  23162532.185 8  98799249.02708
  23162528.915 8  93266553.54108  23162529.492 8  92080875.35608
  22699276.666 7 119285957.30107  92950372.48805  22699277.866 5  22699276.403 5
  22699278.053 7  22699281.003 7  89077460.63307

  21117775.023 8 112728238.96408  87677600.39707
  21117780.031 7

  21067109.382 8 110708766.53708  86266781.89007  21067111.150 7  21067109.043 7
  21067111.268 7  21067108.169 8  82672350.50908

  20029539.039 8 107257706.86908  83422859.98408
  20029543.619 8

  23095433.739 6 123111698.09906


  23529465.516 8 123648395.77508
                  23529466.570 8  92334970.01208  23529467.981 8 100364059.83408
  23529464.760 8  94743688.08308  23529465.561 8  93539332.12208
  19266215.940 8 103061382.46708


  24407408.597 6 128262006.27406  99944533.23605  24407413.164 5  24407408.329 5
  24407413.932 6  24407412.484 7  95780202.12107

  21538222.302 7 115134316.40207


  22403048.062 7 119925761.29307  93275845.23207
  22403054.024 7

  27875135.976 6 146484864.62706
                  27875145.017 6 109388105.30406  27875141.531 6 118900032.05406
  27875142.252 6 112241694.00306  27875143.568 7 110814899.72607
  23800275.085 7 125071637.82707
                  23800276.443 8  93397865.79708  23800278.229 8 101519346.12308
  23800274.822 8  95834301.90908  23800275.572 8  94616089.42708
  22412231.288 7 117777360.93307  91774705.47305  22412233.035 5  22412231.025 5
  22412233.310 7  22412236.889 7  87950822.52807

  23356019.821 6 122736785.00506  95639105.43804  23356023.842 4  23356019.254 4
  23356025.364 6  23356022.181 7  91654142.87407

  37105976.388 7 194993261.87507
                  37105975.929 6 145611821.43506

  36826828.316 7 193526338.29107
                  36826836.724 7 144516423.11407

  25411687.465 7 133539828.75907
                  25411691.419 7  99721618.35307  25411689.592 7 108392495.14707
  25411689.496 7 102323011.31807  25411690.307 8 101022315.91108
  36982886.575 7 194346410.52607
                  36982887.484 6 145128804.38606

  23070872.596 7 123197222.57207  95820131.52907
  23070877.969 7

  27866816.915 6 146441140.57206
                  27866819.445 6 109355421.28306  27866818.324 6 118864564.95806
  27866817.531 6 112208165.72806  27866818.519 6 110781793.57806
  20534812.518 8 107911636.17708  84087184.85507  20534814.647 7  20534812.366 7
  20534815.076 8  20534811.905 8  80583638.02908

  25311992.243 6 133015421.31406 103648398.66403  25311995.182 3  25311992.083 3
  25311996.017 6  25311998.639 6  99329727.05006

  21949779.992 8 117375377.40408  91292032.64607
  21949785.262 7

  23384089.694 7 122884299.29907  95754054.49705  23384094.125 5  23384089.060 5
  23384094.402 7  23384092.886 7  91764307.43807

  24266575.476 6 127521937.01006  99367867.92803  24266578.557 3  24266575.029 3
  24266578.835 6

  23147123.096 7 121639026.53507  94783680.96805  23147121.972 5  23147122.001 5


 25  4 11  4  4  0.0000000  0 29G18E19E29G23R22G10R08R10E33R23G24R01
                                R07E13E26G28G08S33S31E07S35R09E12G32
                                G01R24G27G31G02
  24358902.628 6 128007173.33706  99745991.80604  24358906.610 4  24358902.351 4
  24358906.636 6  24358910.140 7  95589965.85707

  24631720.238 6 129440753.67806
                  24631722.916 6  96660447.90506  24631722.812 6 105065417.06406
  24631720.705 6  99181967.83106  24631721.502 7  97921225.44007
  23162776.346 8 121721711.60008
                  23162777.695 8  90896377.25408  23162779.396 8  98800303.62008
  23162776.096 8  93267549.08308  23162776.710 8  92081858.24208
  22704700.315 7 119314461.17107  92972583.28105  22704701.904 5  22704700.047 5
  22704702.151 7  22704705.158 7  89098745.96907

  21128429.280 8 112785108.72008  87721832.40007
  21128434.212 7

  21067536.891 8 110711014.38008  86268533.46807  21067538.909 7  21067536.552 7
  21067538.911 7  21067535.909 8  82674029.10208

  20032565.511 8 107273912.33308  83435464.24708
  20032569.663 8

  23087514.815 6 123069486.39806


  23526164.612 8 123631049.61408
                  23526165.715 8  92322016.72508  23526167.099 8 100349980.17308
  23526163.816 8  94730396.88508  23526164.672 8  93526209.87808
  19268419.327 8 103073170.34908


  24416437.008 6 128309450.63506  99981502.89905  24416441.428 5  24416436.740 5
  24416442.078 6  24416440.962 7  95815631.37907

  21533313.547 7 115108074.35507


  22410871.675 7 119967639.68007  93308417.29607
  22410877.869 7

  27883136.181 6 146526906.92406
                  27883145.562 6 109419500.47906  27883141.293 6 118934157.24906
  27883142.573 6 112273908.19306  27883144.039 7 110846704.40907
  23804368.395 7 125093148.75007
                  23804369.912 8  93413929.15008  23804371.600 8 101536806.28608
  23804368.191 8  95850784.30508  23804368.976 8  94632362.30108
  22403266.255 7 117730247.88707  91737994.05605  22403267.678 5  22403265.992 5
  22403268.302 7  22403271.474 7  87915640.77707

  23359020.532 6 122752552.26106  95651391.61204  23359024.247 4  23359019.960 4
  23359024.406 6  23359022.531 7  91665917.12707

  37105979.339 7 194993260.49607
                  37105975.755 6 145611820.20506

  36826824.967 7 193526326.48207
                  36826834.439 7 144516414.25507

  25418063.375 7 133573334.56507
                  25418067.412 7  99746638.92407  25418065.868 7 108419691.42607
  25418065.363 7 102348684.59907  25418066.255 8 101047662.83608
  36982892.813 7 194346449.58007
                  36982894.974 6 145128833.47106

  23069118.415 7 123187858.97807  95812848.77907
  23069124.323 7

  27858919.953 6 146399641.87906
                  27858922.236 6 109324432.08206  27858921.767 6 118830881.00506
