     2.11           OBSERVATION DATA    M                   RINEX VERSION / TYPE
ssrcrin-13.7.0x                         11-APR-25 02:00     PGM / RUN BY / DATE 
(000000000000583293750002) Septentrio proprietary           COMMENT             
SEPT                                                        MARKER NAME         
Unknown                                                     MARKER NUMBER       
Unknown             Unknown                                 OBSERVER / AGENCY   
3083514             SEPT POLARX5E       5.4.0               REC # / TYPE / VERS 
Unknown             Unknown                                 ANT # / TYPE        
 -1908062.7325 -5042726.5803  3400841.8860                  APPROX POSITION XYZ 
        0.0000        0.0000        0.0000                  ANTENNA: DELTA H/E/N
     1     1                                                WAVELENGTH FACT L1/2
    14    C1    L1    L2    P2    P1    C2    C5    L5    C6# / TYPES OF OBSERV 
          L6    C7    L7    C8    L8                        # / TYPES OF OBSERV 
For GPS, L2 corresponds to the L2P carrier phase.           COMMENT             
For GLONASS, L2 corresponds to the L2CA carrier phase.      COMMENT             
  2025     4    11     2     0    0.0000000     GPS         TIME OF FIRST OBS   
                                                            END OF HEADER       
 25  4 11  2  0  0.0000000  0 27G18G15E29G23R22R21G10R08R06E33R23G24
                                R07E13E26G08S33S31E07S35G16E08G32E31
                                G27G29E23
  20868306.211 7 109664007.43707  85452626.59606  20868307.662 6  20868305.983 6
  20868308.056 7  20868310.786 8  81892159.86208

  22570020.116 7 118606745.08307  92421091.81205  22570022.681 5  22570019.821 5
  22570022.911 6

  24900402.272 7 130852947.81407
                  24900407.538 7  97715142.77407  24900407.789 7 106212010.83507
  24900405.301 7 100264197.16307  24900406.296 8  98989565.04008
  20754327.345 8 109065186.15108  84986136.32506  20754328.681 6  20754327.113 6
  20754329.023 7  20754331.652 8  81445067.87708

  19336482.007 8 103219585.84708  80281983.92407
  19336486.608 7

  20671016.163 8 110615045.49708  86034086.00707
  20671023.466 7

  21610019.656 8 113561753.91108  88489882.40006  21610023.087 6  21610019.308 6
  21610022.931 7  21610020.253 8  84802820.48808

  20714181.331 8 110923892.46308  86274327.06507
  20714188.542 7

  21621722.596 6 115377727.94006


  26199367.668 7 137678781.41707
                  26199372.292 7 102812192.55907  26199372.464 7 111752350.35807
  26199370.159 7 105494231.06307  26199371.195 8 104153214.88308
  22089857.717 7 118165921.51907


  22866727.600 7 120165645.93007  93635674.69405  22866733.193 5  22866727.377 5
  22866733.476 7  22866733.486 7  89734211.34507

  19184176.462 8 102694895.33808  79874061.95007
  19184182.448 7

  24928559.821 7 131000542.94507
                  24928565.784 7  97825149.80007  24928563.229 7 106331653.63407
  24928563.636 7 100377094.79807  24928564.664 8  99101122.37408
  23538376.532 8 123695341.31308
                  23538378.784 8  92370108.84908  23538380.344 8 100402220.15508
  23538376.907 8  94779734.26308  23538377.712 8  93574927.13008
  24696369.745 6 129780319.14806 101127560.31905  24696377.508 5  24696369.039 5
  24696379.163 6  24696376.465 7  96913909.26207

  37105612.648 7 194991312.86007
                  37105611.501 6 145610391.62606

  36827752.506 7 193531175.90807
                  36827763.115 7 144520060.37107

  23456292.717 8 123264149.40708
                  23456297.326 8  92048218.31508  23456295.521 8 100051844.12608
  23456295.592 8  94449435.99408  23456296.385 8  93248828.22808
  36978626.652 7 194324007.47107
                  36978630.334 6 145112088.16506

  25242816.601 6 132651878.65306 103365114.16002  25242824.155 2  25242815.712 2


  26466424.821 7 139082316.24507
                  26466429.607 7 103860377.25807  26466428.727 7 112891639.04707
  26466427.494 7 106569753.63107  26466428.439 8 105215063.01708
  22480202.586 7 118134668.99407  92053169.36805  22480208.004 5  22480202.475 5
  22480208.885 6  22480206.570 7  88217703.22007

  28348082.023 6 148970203.76106
                  28348091.484 6 111244027.79406  28348087.411 6 120917400.37606
  28348089.616 6 114146033.46506  28348090.747 6 112695037.20106
  22093312.109 7 116101215.88207  90468534.87105  22093316.123 5  22093311.582 5
  22093316.571 7  22093315.008 7  86699017.91507

  24543545.423 6 128977236.14406 100501801.72903  24543551.832 3  24543545.169 3
  24543552.761 6

  27894347.699 6 146585775.28706
                  27894360.055 6 109463431.88406  27894356.253 6 118981982.64106
  27894357.994 6 112318993.64306  27894358.730 7 110891216.83407
 25  4 11  2  0 15.0000000  0 27G18G15E29G23R22R21G10R08R06E33R23G24
                                R07E13E26G08S33S31E07S35G16E08G32E31
                                G27G29E23
  20871053.086 7 109678443.64307  85463875.58506  20871054.776 6  20871052.863 6
  20871055.214 8  20871057.918 8  81902940.14108

  22579446.270 7 118656278.78907  92459689.48105  22579448.436 5  22579445.980 5
  22579449.024 6

  24893343.480 7 130815853.37307
                  24893348.737 7  97687442.42407  24893348.545 7 106181901.74507
  24893346.368 7 100235774.18907  24893347.429 8  98961503.37908
  20756800.816 8 109078184.45308  84996264.87506  20756802.163 6  20756800.575 6
  20756802.363 7  20756805.137 8  81454774.40708

  19332467.510 8 103198153.86308  80265314.59707
  19332471.696 7

  20678294.292 8 110653988.87808  86064375.28507
  20678301.306 7

  21607365.440 8 113547805.09308  88479013.20406  21607368.723 6  21607365.092 6
  21607368.814 7  21607365.803 8  84792404.17708

  20707139.216 8 110886180.27108  86244995.40007
  20707145.755 7

  21631603.413 6 115430456.48106


  26193233.981 7 137646549.29107
                  26193238.663 7 102788123.15007  26193239.137 7 111726187.93207
  26193236.547 7 105469533.74707  26193237.573 7 104128831.52007
  22079323.330 7 118109568.99707


  22863272.435 7 120147490.00507  93621527.25805  22863278.257 5  22863272.207 5
  22863278.681 6  22863278.360 7  89720653.39707

  19186811.273 8 102708998.52208  79885031.09908
  19186817.200 8

  24932150.225 7 131019411.09807
                  24932156.269 7  97839239.65707  24932153.694 7 106346968.69607
  24932154.140 7 100391552.21307  24932155.166 8  99115396.00908
  23536138.747 8 123683581.92108
                  23536141.073 8  92361327.49608  23536142.558 8 100392675.20608
  23536139.192 8  94770723.82808  23536139.965 8  93566031.23608
  24688449.653 6 129738696.42706 101095127.09505  24688456.758 5  24688448.938 5
  24688458.107 6  24688455.843 7  96882827.43107

  37105614.088 7 194991320.63707
                  37105613.017 6 145610397.44806

  36827751.518 7 193531168.51507
                  36827761.545 7 144520055.05007

  23456485.332 8 123265162.02408
                  23456489.996 8  92048974.50608  23456488.252 8 100052666.06308
  23456488.219 8  94450211.90408  23456489.058 8  93249594.27808
  36978637.827 7 194324056.11907
                  36978639.626 6 145112124.48506

  25249013.900 6 132684444.20906 103390489.82902  25249021.194 2  25249013.015 2


  26473238.770 7 139118123.43407
                  26473243.425 7 103887116.38207  26473242.810 7 112920703.31507
  26473241.333 7 106597190.30207  26473242.329 8 105242150.91408
  22471695.270 7 118089966.05007  92018335.97205  22471701.328 5  22471695.150 5
  22471702.101 7  22471699.797 7  88184321.23007

  28350815.944 6 148984568.29206
                  28350825.532 6 111254754.51906  28350821.614 6 120929059.88106
  28350823.283 6 114157040.03506  28350824.312 6 112705903.85306
  22089689.424 7 116082176.50307  90453699.00906  22089693.009 6  22089688.897 6
  22089693.137 7  22089691.734 7  86684800.20807

  24554470.165 6 129034644.62406 100546535.55503  24554476.230 3  24554469.915 3
  24554476.696 6

  27900387.604 6 146617514.96206
                  27900399.807 6 109487133.49606  27900396.046 6 119007745.28806
  27900397.128 6 112343313.57906  27900398.609 6 110915227.60606
 25  4 11  2  0 30.0000000  0 27G18G15E29G23R22R21G10R08R06E33R23G24
                                R07E13E26G08S33S31E07S35G16E08G32E31
                                G27G29E23
  20873818.628 7 109692976.64307  85475199.99706  20873820.323 6  20873818.392 6
  20873820.448 7  20873823.433 8  81913792.69908

  22588884.471 7 118705875.22107  92498336.03005  22588886.377 5  22588884.176 5
  22588886.863 6

  24886296.194 7 130778819.95307
                  24886301.436 7  97659787.65007  24886301.530 7 106151842.18807
  24886299.013 7 100207397.98207  24886300.169 8  98933487.88908
  20759281.664 8 109091222.76408  85006424.60506  20759283.266 6  20759281.423 6
  20759283.585 7  20759286.252 8  81464510.81308

  19328478.313 8 103176860.33708  80248752.98107
  19328482.973 7

  20685596.130 8 110693065.91308  86094768.52707
  20685603.548 7

  21604719.195 8 113533900.17608  88468178.21006  21604722.658 6  21604718.842 6
  21604722.720 7  21604719.764 8  84782020.64508

  20700120.545 8 110848597.79508  86215764.64107
  20700127.199 7

  21641492.535 6 115483224.79206


  26187099.456 7 137614312.45507
                  26187104.252 7 102764050.23307  26187104.497 7 111700021.71007
  26187102.050 7 105444832.82907  26187103.044 7 104104444.60107
  22068794.695 7 118053247.12107


  22859841.217 7 120129458.42207  93607476.71205  22859846.707 5  22859840.998 5
  22859847.535 6  22859847.141 7  89707188.28907

  19189473.193 8 102723248.63208  79896114.52408
  19189479.346 8

  24935750.327 7 131038329.68807
                  24935756.394 7  97853367.15907  24935753.913 7 106362324.68707
  24935754.224 7 100406048.26207  24935755.256 8  99129707.78508
  23533908.523 8 123671861.42708
                  23533910.735 8  92352575.18308  23533912.191 8 100383161.81708
  23533908.867 8  94761743.19208  23533909.622 8  93557164.76208
  24680543.752 6 129697153.87206 101062756.33604  24680551.551 4  24680543.042 4
  24680552.325 6  24680550.400 7  96851805.47407

  37105616.968 7 194991330.96807
                  37105614.886 6 145610405.48906

  36827751.473 7 193531163.15207
                  36827760.669 7 144520050.97007

  23456697.807 8 123266278.10408
                  23456702.377 8  92049807.94908  23456700.582 8 100053571.98208
  23456700.593 8  94451067.09108  23456701.420 8  93250438.59308
  36978646.641 7 194324106.43907
                  36978649.307 6 145112162.00706

  25255216.018 6 132717037.70406 103415887.26102  25255223.370 2  25255215.178 2


  26480062.666 7 139153983.34007
                  26480067.388 7 103913894.87307  26480066.580 7 112949810.36807
  26480065.445 7 106624667.35807  26480066.257 8 105269278.69108
  22463203.264 7 118045338.59607  91983561.39905  22463208.987 5  22463203.126 5
  22463209.557 7  22463207.324 7  88150995.60907

  28353564.067 6 148999010.73306
                  28353573.669 6 111265539.44506  28353569.506 6 120940782.62406
  28353571.442 6 114168106.31606  28353572.723 6 112716829.45306
  22086092.582 7 116063277.81707  90438972.77405  22086096.572 5  22086092.046 5
  22086097.346 7  22086095.498 7  86670687.57707

  24565395.255 6 129092057.31306 100591272.66503  24565401.437 3  24565395.027 3
  24565402.110 5

  27906429.795 6 146649265.99806
                  27906442.067 6 109510843.57906  27906438.855 6 119033517.16406
  27906439.419 6 112367642.17706  27906440.643 6 110939246.95106
 25  4 11  2  0 45.0000000  0 27G18G15E29G23R22R21G10R08R06E33R23G24
                                R07E13E26G08S33S31E07S35G16E08G32E31
                                G27G29E23
  20876602.419 7 109707605.28307  85486598.93106  20876604.069 6  20876602.187 6
  20876604.471 7  20876607.171 8  81924716.68308

  22598333.437 7 118755532.82007  92537030.23905  22598336.356 5  22598333.129 5
  22598336.322 6

  24879260.114 7 130741846.51407
                  24879265.524 7  97632177.65707  24879265.763 7 106121831.31007
  24879263.234 7 100179067.73307  24879264.313 8  98905517.76808
  20761770.400 8 109104299.76408  85016614.47606  20761771.741 6  20761770.159 6
  20761771.825 7  20761774.743 8  81474276.10608

  19324515.121 8 103155704.39608  80232298.37407
  19324519.246 7

  20692923.392 8 110732275.27108  86125264.67607
  20692931.090 7

  21602081.335 8 113520037.88508  88457376.43606  21602084.808 6  21602080.987 6
  21602084.681 7  21602081.909 8  84771668.94108

  20693126.702 8 110811143.83908  86186633.82107
  20693132.991 7

  21651389.561 6 115536031.21006


  26180963.933 7 137582069.78107
                  26180968.556 7 102739972.94407  26180968.926 7 111673850.73107
  26180966.435 7 105420127.44007  26180967.472 7 104080053.26207
  22058270.851 7 117996955.01707


  22856433.429 7 120111550.24407  93593522.33105  22856438.914 5  22856433.206 5
  22856439.763 6  22856439.257 7  89693815.34207

  19192162.185 8 102737644.21208  79907311.09908
  19192168.262 8

  24939359.952 7 131057297.52507
                  24939365.843 7  97867531.45107  24939363.127 7 106377720.65107
  24939363.686 7 100420582.05407  24939364.723 8  99144056.82708
  23531685.247 8 123660178.73408
                  23531687.564 8  92343851.10208  23531689.097 8 100373679.12208
  23531685.672 8  94752791.53208  23531686.466 8  93548326.89108
  24672653.944 6 129655690.58106 101030447.33003  24672661.113 3  24672653.247 3
  24672661.851 6  24672660.005 7  96820842.70307

  37105617.737 7 194991341.56407
                  37105616.970 6 145610413.20506

  36827749.537 7 193531158.63407
                  36827759.770 7 144520047.58007

  23456929.542 8 123267496.36308
                  23456934.191 8  92050717.70908  23456932.453 8 100054560.83608
  23456932.458 8  94452000.58008  23456933.220 8  93251360.21708
  36978655.499 7 194324158.48507
                  36978659.096 6 145112201.03606

  25261423.755 5 132749657.57305 103441305.24002  25261431.033 2  25261422.892 2


  26486896.334 7 139189894.46507
                  26486901.049 7 103940711.61507  26486900.078 7 112978959.00707
  26486898.868 7 106652183.66807  26486899.921 8 105296445.21508
  22454725.029 7 118000785.64907  91948844.88505  22454730.693 5  22454724.900 5
  22454731.201 7  22454729.218 7  88117725.62707

  28356326.441 6 149013529.72406
                  28356336.579 6 111276381.51406  28356332.191 6 120952567.51206
  28356334.628 6 114179231.22006  28356335.587 6 112727812.94306
  22082523.062 7 116044518.76007  90424355.33906  22082526.706 6  22082522.530 6
  22082527.374 7  22082525.689 7  86656679.20407

  24576321.134 6 129149472.55606 100636011.74503  24576327.967 3  24576320.875 3
  24576327.853 5

  27912473.404 6 146681026.86706
                  27912485.942 6 109534561.01906  27912483.078 6 119059297.01106
  27912483.665 6 112391978.34106  27912484.676 6 110963273.75306
 25  4 11  2  1  0.0000000  0 27G18G15E29G23R22R21G10R08R06E33R23G24
                                R07E13E26G08S33S31E07S35G16E08G32E31
                                G27G29E23
  20879403.746 7 109722327.52107  85498070.80106  20879405.675 6  20879403.518 6
  20879405.901 8  20879408.709 8  81935710.55208

  22607794.155 7 118805249.17007  92575770.23405  22607797.052 5  22607793.847 5
  22607796.957 6

  24872235.447 7 130704931.05907
                  24872240.713 7  97604610.97507  24872240.708 7 106091867.51207
  24872238.466 7 100150781.91107  24872239.488 8  98877591.51508
  20764265.784 8 109117413.20008  85026832.74306  20764267.175 6  20764265.543 6
  20764267.492 7  20764270.113 8  81484068.61508

  19320576.942 8 103134684.25208  80215949.38007
  19320581.889 7

  20700275.470 8 110771614.56308  86155861.87507
  20700282.446 7

  21599451.285 8 113506215.97608  88446606.12506  21599454.604 6  21599450.941 6
  21599454.492 7  21599451.675 8  84761347.39908

  20686155.733 8 110773816.31008  86157601.35307
  20686162.151 7

  21661290.792 6 115588873.07306


  26174826.977 7 137549819.22907
                  26174831.566 7 102715889.76807  26174831.988 7 111647673.35007
  26174829.295 7 105395416.00307  26174830.354 8 104055655.95808
  22047753.090 7 117940691.47107


  22853048.425 7 120093763.61107  93579662.65005  22853054.187 5  22853048.206 5
  22853054.963 7  22853054.566 7  89680533.16307

  19194878.446 8 102752183.03608  79918619.07208
  19194884.317 8

  24942978.124 7 131076312.53507
                  24942984.301 7  97881730.96007  24942981.796 7 106393154.90107
  24942982.083 7 100435151.99007  24942983.174 8  99158441.54908
  23529469.046 8 123648531.86008
                  23529471.271 8  92335153.77708  23529472.742 8 100364225.49908
  23529469.371 8  94743867.31308  23529470.137 8  93539516.11908
  24664778.585 6 129614304.71006 100998198.67503  24664785.777 3  24664777.937 3
  24664786.703 6  24664784.621 7  96789937.75407

  37105619.025 7 194991351.14507
                  37105618.736 6 145610420.22206

  36827749.300 7 193531152.88307
                  36827758.607 7 144520043.39107

  23457180.342 8 123268814.59308
                  23457185.018 8  92051702.11508  23457183.306 8 100055630.84008
  23457183.258 8  94453010.66508  23457184.047 8  93252357.46308
  36978665.851 7 194324209.10707
                  36978668.629 6 145112238.94606

  25267635.533 5 132782301.34105 103466741.82602  25267643.020 2  25267634.706 2


  26493739.475 7 139225854.47907
                  26493743.940 7 103967564.86907  26493743.227 7 113008147.33307
  26493741.826 7 106679737.44207  26493742.880 8 105323648.72708
  22446260.792 7 117956305.30907  91914184.93805  22446266.309 5  22446260.649 5
  22446266.994 7  22446264.709 7  88084509.85807

  28359103.733 6 149028122.91906
                  28359113.674 6 111287279.00206  28359109.275 6 120964412.61706
  28359111.775 6 114190412.99906  28359112.769 6 112738852.57106
  22078979.542 7 116025897.28707  90409845.10906  22078983.169 6  22078979.015 6
  22078983.780 7  22078982.144 7  86642773.56507

  24587246.367 6 129206887.87206 100680750.89503  24587253.720 3  24587246.086 3
  24587254.086 5

  27918519.064 6 146712795.19506
                  27918531.481 6 109558284.00606  27918528.038 6 119085082.92706
  27918529.215 6 112416320.22106  27918530.122 7 110987306.18707
 25  4 11  2  1 15.0000000  0 27G18G15E29G23R22R21G10R08R06E33R23G24
                                R07E13E26G08S33S31E07S35G16E08G32E31
                                G27G29E23
  20882223.911 7 109737146.35307  85509617.93706  20882225.632 6  20882223.679 6
  20882225.886 8  20882228.669 8  81946776.56008

  22617266.684 7 118855026.55907  92614557.78305  22617269.268 5  22617266.389 5
  22617269.611 6

  24865222.292 7 130668076.71307
                  24865227.590 7  97577089.93107  24865227.564 7 106061953.30407
  24865225.243 7 100122542.91507  24865226.311 8  98849711.49508
  20766768.668 8 109130565.96008  85037081.65006  20766770.063 6  20766768.423 6
  20766770.182 7  20766773.029 8  81493890.48208

  19316665.683 8 103113803.29508  80199708.65107
  19316670.027 7

  20707650.863 8 110811086.60008  86186562.33007
  20707658.969 7

  21596829.129 8 113492437.30808  88435869.51306  21596832.610 6  21596828.781 6
  21596832.806 7  21596829.709 8  84751058.14508

  20679209.329 8 110736618.57208  86128669.82907
  20679215.647 7

  21671200.319 6 115641753.17206


  26168689.002 7 137517563.80307
                  26168693.424 7 102691802.97007  26168693.788 7 111621492.02907
  26168691.328 7 105370700.84307  26168692.305 8 104031254.98008
  22037241.474 7 117884459.33607


  22849687.753 7 120076101.78707  93565900.22605  22849693.374 5  22849687.539 5
  22849693.823 7  22849693.531 7  89667344.18007

  19197621.775 8 102766867.64408  79930040.43108
  19197627.348 8

  24946606.179 7 131095377.74607
                  24946612.308 7  97895967.96107  24946609.622 7 106408629.90807
  24946610.081 7 100449760.39307  24946611.157 8  99172864.25208
  23527259.808 8 123636923.90808
                  23527262.275 8  92326485.50508  23527263.828 8 100354803.46108
  23527260.383 8  94734972.91508  23527261.196 8  93530734.78408
  24656917.787 6 129572999.51306 100966012.86603  24656925.822 3  24656917.126 3
  24656927.109 6  24656924.280 7  96759093.03807

  37105622.365 7 194991362.63607
                  37105620.967 6 145610429.14706

  36827748.030 7 193531149.08307
                  36827757.852 7 144520040.54407

  23457450.816 8 123270235.69208
                  23457455.405 8  92052763.33808  23457453.676 8 100056784.33408
  23457453.665 8  94454099.57108  23457454.446 8  93253432.52708
  36978676.046 7 194324261.03507
                  36978678.444 6 145112277.55806

  25273853.221 5 132814971.58805 103492199.08602  25273860.087 2  25273852.421 2


  26500592.193 7 139261866.12207
                  26500596.755 7 103994456.66407  26500595.690 7 113037377.54707
  26500594.595 7 106707330.76007  26500595.646 8 105350891.28508
  22437811.282 7 117911900.79407  91879584.07805  22437816.445 5  22437811.135 5
  22437817.228 7  22437814.783 7  88051350.70707

  28361895.772 6 149042793.09906
                  28361905.023 6 111298233.98006  28361901.507 6 120976320.23006
  28361902.826 6 114201653.77206  28361904.206 6 112749950.44606
  22075462.838 7 116007416.54507  90395444.54706  22075466.502 6  22075462.315 6
  22075467.185 7  22075465.460 7  86628973.02707

  24598173.066 6 129264305.88006 100725492.13603  24598179.932 3  24598172.767 3
  24598180.607 6

  27924565.938 6 146744573.67706
                  27924578.529 6 109582014.57706  27924575.073 6 119110877.06106
  27924576.299 6 112440669.87806  27924577.441 6 111011346.29906
 25  4 11  2  1 30.0000000  0 27G18G15E29G23R22R21G10R08R06E33R23G24
                                R07E13E26G08S33S31E07S35G16E08G32E31
                                G27G29E23
  20885061.505 7 109752059.47207  85521238.54706  20885063.489 6  20885061.264 6
  20885063.669 8  20885066.553 8  81957912.97908

  22626750.031 7 118904862.50507  92653390.95905  22626752.971 5  22626749.732 5
  22626753.522 6

  24858220.306 7 130631281.26507
                  24858225.586 7  97549612.85907  24858225.743 7 106032086.91607
  24858223.297 7 100094349.05307  24858224.336 8  98821876.02808
  20769278.631 8 109143755.52808  85047359.23606  20769279.962 6  20769278.386 6
  20769280.390 7  20769282.913 8  81503739.83208

  19312779.553 8 103093059.44108  80183574.53907
  19312783.514 7

  20715052.041 8 110850688.70108  86217363.95307
  20715059.381 7

  21594214.658 8 113478699.42408  88425164.67906  21594218.352 6  21594214.310 6
  21594218.387 7  21594215.436 8  84740799.34508

  20672286.723 8 110699548.13308  86099837.31007
  20672293.363 7

  21681116.939 6 115694668.65806


  26162549.582 7 137485301.24907
                  26162553.927 7 102667710.83107  26162554.534 7 111595304.90607
  26162551.879 7 105345980.20707  26162552.892 7 104006848.59107
  22026734.702 7 117828256.78707


  22846350.313 7 120058562.65307  93552233.41405  22846355.844 5  22846350.099 5
  22846356.077 7  22846355.775 7  89654246.83107

  19200391.638 8 102781695.47208  79941573.19107
  19200397.559 7

  24950243.354 7 131114490.82307
                  24950249.396 7  97910240.70207  24950246.627 7 106424143.75707
  24950247.138 7 100464405.46607  24950248.290 8  99187323.15908
  23525057.872 8 123625352.58708
                  23525060.265 8  92317844.59708  23525061.859 8 100345411.16608
  23525058.470 8  94726106.58808  23525059.239 8  93521981.16608
  24649072.781 6 129531772.87606 100933888.29503  24649080.848 3  24649072.138 3
  24649081.337 6  24649078.992 7  96728306.98607

  37105625.849 7 194991373.11207
                  37105622.953 6 145610436.80906

  36827748.603 7 193531143.95507
                  36827757.016 7 144520036.45407

  23457740.165 8 123271757.20308
                  23457744.902 8  92053899.54408  23457743.198 8 100058019.33608
  23457743.230 8  94455265.41008  23457743.956 8  93254583.55008
  36978687.748 7 194324312.56207
                  36978688.228 6 145112316.20206

  25280074.321 5 132847665.48405 103517674.77302  25280082.023 2  25280073.566 2


  26507454.329 7 139297926.79007
                  26507458.997 7 104021385.06507  26507458.018 7 113066647.55207
  26507456.739 7 106734961.64607  26507457.758 8 105378170.93008
  22429374.936 7 117867569.92207  91845040.59805  22429380.488 5  22429374.771 5
  22429380.883 7  22429378.833 7  88018246.55707

  28364701.314 6 149057537.71706
                  28364711.120 6 111309244.55406  28364706.704 6 120988288.24906
  28364709.196 6 114212951.56506  28364710.171 6 112761104.63506
  22071972.236 7 115989074.26507  90381151.87306  22071976.168 6  22071971.704 6
  22071976.471 7  22071974.957 7  86615275.88707

  24609099.258 6 129321723.91706 100770233.40703  24609106.266 3  24609098.963 3
  24609106.824 5

  27930614.782 6 146776359.64506
                  27930627.465 6 109605750.76806  27930623.949 6 119136677.29806
  27930625.302 6 112465025.26506  27930626.165 7 111035392.09207
 25  4 11  2  1 45.0000000  0 27G18G15E29G23R22R21G10R08R06E33R23G24
                                R07E13E26G08S33S31E07S35G16E08G32E31
                                G27G29E23
  20887916.555 7 109767063.27707  85532929.82306  20887918.647 6  20887916.305 6
  20887918.898 8  20887921.713 8  81969117.11208

  22636244.632 7 118954753.03907  92692266.67605  22636246.655 5  22636244.346 5
  22636247.071 6

  24851228.939 7 130594541.18907
                  24851234.186 7  97522177.13907  24851234.070 7 106002265.45307
  24851231.717 7 100066197.60407  24851232.896 8  98794082.44408
  20771794.671 8 109156978.13408  85057662.56506  20771796.153 6  20771794.421 6
  20771796.234 7  20771799.112 8  81513613.85508

  19308918.604 8 103072449.33108  80167544.46607
  19308923.054 7

  20722476.296 8 110890417.01008  86248263.73607
  20722483.627 7

  21591607.697 8 113464998.54308  88414488.67606  21591611.181 6  21591607.362 6
  21591611.378 7  21591608.237 8  84730568.17908

  20665386.925 8 110662601.47208  86071101.04507
  20665393.737 7

  21691039.105 6 115747615.29006


  26156408.167 7 137453027.92807
                  26156412.538 7 102643610.66507  26156413.086 7 111569109.06707
  26156410.522 7 105321251.34107  26156411.450 7 103982434.07507
  22016233.572 7 117772080.60207


  22843035.195 7 120041142.85107  93538659.57905  22843040.865 5  22843034.976 5
  22843041.210 7  22843040.895 7  89641238.57007

  19203187.387 8 102796661.93808  79953213.78607
  19203193.569 7

  24953888.749 7 131133648.12507
                  24953894.913 7  97924546.47507  24953892.243 7 106439693.51607
  24953892.730 7 100479084.42907  24953893.803 8  99201815.52708
  23522862.416 8 123613814.38608
                  23522864.579 8  92309228.42208  23522866.200 8 100336045.75508
  23522862.790 8  94717265.63808  23522863.579 8  93513252.60408
  24641241.543 6 129490621.40506 100901822.28003  24641249.503 3  24641240.917 3
  24641250.100 6  24641248.443 7  96697577.07207

  37105626.095 7 194991379.60607
                  37105624.169 6 145610441.51406

  36827745.048 7 193531135.18707
                  36827755.182 7 144520030.04607

  23458048.190 8 123273375.37708
                  23458052.837 8  92055107.93708  23458051.166 8 100059332.80408
  23458051.127 8  94456505.32908  23458051.854 8  93255807.70608
  36978694.532 7 194324359.43507
                  36978697.292 6 145112351.07506

  25286299.504 6 132880379.08706 103543165.79202  25286307.389 2  25286298.785 2


  26514325.020 7 139334032.54907
                  26514329.706 7 104048347.14907  26514328.887 7 113095954.15807
  26514327.512 7 106762627.08207  26514328.500 8 105405484.69008
  22420952.569 7 117823309.26807  91810551.84205  22420957.891 5  22420952.400 5
  22420958.397 7  22420956.297 7  87985194.84707

  28367520.334 6 149072352.91006
                  28367530.454 6 111320307.83306  28367526.469 6 121000313.54606
  28367528.565 6 114224303.46706  28367529.565 6 112772312.22606
  22068507.654 7 115970866.89907  90366964.33306  22068511.349 6  22068507.136 6
  22068511.604 7  22068510.174 7  86601679.49807

  24620024.427 6 129379137.95806 100814971.56603  24620031.612 3  24620024.123 3
  24620032.535 6

  27936664.186 6 146808149.15506
                  27936676.935 6 109629489.60406  27936673.968 6 119162480.42506
  27936674.570 6 112489383.40306  27936675.680 6 111059440.57506
 25  4 11  2  2  0.0000000  0 27G18G15E29G23R22R21G10R08R06E33R23G24
                                R07E13E26G08S33S31E07S35G16E08G32E31
                                G27G29E23
  20890790.954 7 109782166.78507  85544698.78306  20890792.738 6  20890790.700 6
  20890792.966 8  20890795.826 8  81980395.70708

  22645749.967 7 119004706.59807  92731191.50405  22645752.605 5  22645749.686 5
  22645753.319 6

  24844249.543 7 130557865.60107
                  24844254.980 7  97494789.57807  24844255.087 7 105972496.34607
  24844252.700 7 100038095.59007  24844253.744 8  98766337.65508
  20774319.035 8 109170242.62608  85067998.53406  20774320.290 6  20774318.785 6
  20774320.445 7  20774323.274 8  81523519.16408

  19305084.474 8 103051982.45308  80151625.79407
  19305088.498 7

  20729925.784 8 110930280.39808  86279268.56407
  20729933.190 7

  21589009.140 8 113451343.52908  88403848.42106  21589012.739 6  21589008.796 6
  21589012.722 7  21589009.792 8  84720371.26908

  20658513.198 8 110625788.02208  86042468.39307
  20658518.519 7

  21700968.750 6 115800601.70606


  26150266.560 7 137420752.90207
                  26150270.875 7 102619509.22207  26150271.323 7 111542911.82907
  26150268.706 7 105296521.16307  26150269.685 7 103958018.26507
  22005738.126 7 117715940.14407


  22839744.619 7 120023851.59007  93525185.90705  22839750.274 5  22839744.409 5
  22839750.474 7  22839750.587 7  89628326.31307

  19206011.147 8 102811775.97608  79964969.14908
  19206016.723 8

  24957544.345 7 131152858.67307
                  24957550.523 7  97938892.00707  24957547.959 7 106455286.48807
  24957548.427 7 100493804.19607  24957549.475 8  99216348.17608
  23520674.740 8 123602318.39508
                  23520676.990 8  92300643.76508  23520678.619 8 100326714.60108
  23520675.178 8  94708457.03308  23520675.958 8  93504555.97308
  24633427.071 6 129449554.38406 100869822.05903  24633433.751 3  24633426.450 3
  24633435.323 6  24633433.562 7  96666910.20507

  37105628.625 7 194991390.34607
                  37105626.181 6 145610449.70406

  36827743.778 7 193531130.97707
                  36827754.391 7 144520026.91207

  23458376.090 7 123275099.13007
                  23458380.925 8  92056395.16908  23458379.121 8 100060731.96108
  23458379.079 8  94457826.13608  23458379.852 8  93257111.72608
  36978705.000 7 194324411.12507
                  36978707.058 6 145112389.70506

  25292530.617 5 132913120.94205 103568678.82102  25292538.238 2  25292529.862 2


  26521205.842 7 139370192.16307
                  26521210.550 7 104075349.44307  26521209.628 7 113125304.49207
  26521208.507 7 106790333.79807  26521209.460 8 105432839.19508
  22412545.145 7 117779128.02707  91776124.96105  22412550.338 5  22412544.976 5
  22412551.368 7  22412548.753 7  87952202.43507

  28370355.007 6 149087247.48606
                  28370364.837 6 111331430.34206  28370360.201 6 121012403.27006
  28370362.656 6 114235716.13606  28370363.841 6 112783579.81506
  22065070.242 7 115952803.55307  90352889.00606  22065073.932 6  22065069.724 6
  22065074.625 7  22065072.930 7  86588190.64607

  24630951.851 6 129436556.65706 100859713.33203  24630958.460 3  24630951.579 3
  24630958.676 6

  27942715.446 6 146839950.95606
                  27942728.606 6 109653237.60406  27942725.059 6 119188293.49106
  27942726.615 6 112513750.91506  27942727.409 7 111083498.33007
 25  4 11  2  2 15.0000000  0 27G18G15E29G23R22R21G10R08R06E33R23G24
                                R07E13E26G08S33S31E07S35G16E08G32E31
                                G27G29E23
  20893683.170 7 109797365.62007  85556542.02506  20893684.992 6  20893682.916 6
  20893685.076 7  20893688.026 8  81991745.47308

  22655266.760 7 119054718.48307  92770161.77405  22655269.644 5  22655266.474 5
  22655269.645 6

  24837281.898 7 130521250.21307
                  24837287.273 7  97467446.95907  24837287.062 7 105942776.09807
  24837284.974 7 100010039.67407  24837286.013 8  98738638.38908
  20776850.193 8 109183544.47208  85078363.60406  20776851.573 6  20776849.943 6
  20776851.586 7  20776854.504 8  81533452.35308

  19301276.362 8 103031654.60208  80135815.24907
  19301280.882 7

  20737399.240 8 110970274.36408  86310374.97407
  20737406.805 7

  21586418.364 8 113437729.82708  88393240.34806  21586422.145 6  21586418.020 6
  21586421.897 7  21586419.129 8  84710205.20208

  20651661.357 8 110589103.01408  86013935.65607
  20651668.468 7

  21710905.267 6 115853622.95006


  26144123.718 7 137388471.82907
                  26144127.923 7 102595403.26207  26144128.242 7 111516709.67307
  26144125.891 7 105271786.34207  26144126.767 7 103933597.87207
  21995249.232 7 117659831.37607


  22836478.499 7 120006684.66007  93511809.11605  22836483.396 5  22836478.298 5
  22836484.000 7  22836483.788 7  89615506.90007

  19208861.146 8 102827032.70508  79976835.50308
  19208866.702 8

  24961209.309 7 131172118.05607
                  24961215.476 7  97953274.00107  24961212.748 7 106470919.09607
  24961213.376 7 100508561.36907  24961214.413 8  99230917.75908
  23518494.419 8 123590860.29208
                  23518496.582 8  92292087.39808  23518498.196 8 100317414.20008
  23518494.733 8  94699677.45408  23518495.537 8  93495887.99908
  24625627.549 6 129408567.60006 100837884.35003  24625633.953 3  24625626.937 3
  24625636.326 6  24625634.030 7  96636303.26907

  37105627.874 7 194991401.68907
                  37105628.337 6 145610458.19106

  36827743.805 7 193531126.20407
                  36827753.559 7 144520023.32907

  23458723.342 7 123276923.91207
                  23458728.125 8  92057757.84808  23458726.238 8 100062213.12608
  23458726.292 8  94459224.35908  23458727.074 8  93258492.17608
  36978713.281 7 194324462.79707
                  36978716.896 6 145112428.21906

  25298765.473 5 132945886.21805 103594210.13802  25298773.253 2  25298764.754 2


  26528096.144 7 139406400.93507
                  26528100.972 7 104102388.45707  26528100.188 7 113154694.72107
  26528098.724 7 106818078.17307  26528099.774 8 105460230.88908
  22404151.668 7 117735021.97807  91741756.67205  22404157.210 5  22404151.503 5
  22404157.818 7  22404155.720 7  87919266.16707

  28373203.111 6 149102216.75106
                  28373213.282 6 111342608.67806  28373209.188 5 121024553.63305
  28373211.431 6 114247186.08106  28373212.403 6 112794903.95706
  22061659.247 7 115934879.88207  90338922.52406  22061663.081 6  22061658.729 6
  22061663.559 7  22061662.100 7  86574806.10907

  24641877.231 6 129493975.24506 100904455.02803  24641884.990 3  24641876.995 3
  24641885.034 6

  27948769.185 6 146871760.28906
                  27948781.846 6 109676991.21106  27948778.450 6 119214112.70006
  27948779.295 6 112538124.20606  27948780.582 6 111107561.77706
 25  4 11  2  2 30.0000000  0 27G18G15E29G23R22R21G10R08R06E33R23G24
                                R07E13E26G08S33S31E07S35G16E08G32E31
                                G27G29E23
  20896593.351 7 109812659.02107  85568458.95706  20896595.249 6  20896593.097 6
  20896595.563 8  20896598.297 8  82003165.85708

  22664794.905 7 119104787.50707  92809176.57605  22664797.447 5  22664794.624 5
  22664797.606 6

  24830325.628 7 130484694.35407
                  24830330.814 7  97440148.80207  24830330.986 7 105913104.16707
  24830328.661 7  99982029.38807  24830329.639 8  98710984.16708
  20779388.349 8 109196882.76108  85088757.07506  20779389.738 6  20779388.095 6
  20779389.785 7  20779392.693 8  81543412.75908

  19297494.182 8 103011465.31908  80120112.47507
  19297498.377 7

  20744896.956 8 111010397.63108  86341581.94607
  20744904.885 7

  21583835.474 8 113424156.55708  88382663.78206  21583839.219 6  21583835.130 6
  21583839.144 7  21583836.235 8  84700069.32908

  20644834.507 8 110552545.91208  85985502.41507
  20644841.376 7

  21720847.859 6 115906677.94706


  26137979.333 7 137356183.96007
                  26137983.735 7 102571292.23007  26137984.171 7 111490502.01507
  26137981.543 7 105247046.31807  26137982.543 7 103909172.34607
  21984765.939 7 117603753.97407


  22833235.059 6 119989641.59206  93498528.84305  22833240.200 5  22833234.845 5
  22833240.549 6  22833240.441 7  89602779.96707

  19211737.519 8 102842431.06608  79988812.01408
  19211743.698 8

  24964883.771 7 131191425.51007
                  24964889.585 7  97967691.89707  24964887.164 7 106486590.71907
  24964887.481 7 100523355.38107  24964888.517 8  99245523.71308
  23516321.036 8 123579439.40708
                  23516323.247 8  92283558.82508  23516324.884 8 100308144.00208
  23516321.439 8  94690926.39208  23516322.208 8  93487248.18208
  24617843.104 6 129367660.57506 100806008.82003  24617850.048 3  24617842.492 3
  24617850.993 6  24617849.484 7  96605755.88807

  37105631.156 7 194991411.77907
                  37105630.335 6 145610465.50506

  36827743.787 7 193531121.33707
                  36827752.539 7 144520019.75107

  23459089.679 7 123278848.84607
                  23459094.440 8  92059195.30908  23459092.698 8 100063775.58308
  23459092.609 8  94460699.31708  23459093.358 8  93259948.38608
  36978723.615 7 194324514.50607
                  36978726.555 6 145112467.06806

  25305004.822 6 132978673.59006 103619758.62802  25305012.540 2  25305004.103 2


  26534995.793 7 139442657.84507
                  26535000.394 7 104129463.40207  26534999.508 7 113184124.01907
  26534998.206 7 106845859.41907  26534999.251 8 105487658.98308
  22395772.872 7 117690990.54507  91707446.52005  22395778.310 5  22395772.703 5
  22395778.880 7  22395776.593 7  87886385.62307

  28376066.126 6 149117259.75706
                  28376076.215 6 111353842.06906  28376071.641 6 121036763.85406
  28376073.483 6 114258712.52206  28376075.001 6 112806283.86606
  22058275.142 7 115917095.24807  90325064.37706  22058278.747 6  22058274.619 6
  22058279.520 7  22058277.808 7  86561525.38907

  24652803.483 6 129551392.53706 100949195.71503  24652810.510 3  24652803.247 3
  24652811.372 5

  27954823.659 6 146903576.06906
                  27954836.330 6 109700749.66706  27954833.100 6 119239937.11606
  27954833.937 6 112562502.44406  27954834.971 6 111131630.12806
 25  4 11  2  2 45.0000000  0 27G18G15E29G23R22R21G10R08R06E33R23G24
                                R07E13E26G08S33S31E07S35G16E08G32E31
                                G27G29E23
  20899521.179 7 109828045.00707  85580448.02706  20899523.085 6  20899520.920 6
  20899523.273 8  20899526.173 8  82014655.38908

  22674333.235 7 119154911.16407  92848233.94505  22674335.843 5  22674332.958 5
  22674336.479 6

  24823380.164 7 130448196.13007
                  24823385.332 7  97412893.68707  24823385.414 7 105883479.02207
  24823383.236 7  99954063.25807  24823384.226 8  98683373.54608
  20781932.990 8 109210255.32208  85099177.25106  20781934.417 6  20781932.731 6
  20781934.660 7  20781937.415 8  81553398.76308

  19293737.797 8 102991412.95608  80104516.19607
  19293741.825 7

  20752419.582 8 111050648.11008  86372887.85207
  20752426.626 7

  21581259.933 8 113410621.53908  88372117.02306  21581263.601 6  21581259.589 6
  21581263.580 7  21581260.608 8  84689962.01508

  20638031.799 8 110516114.87208  85957167.19607
  20638038.148 7

  21730796.077 6 115959764.16206


  26131833.406 7 137323887.32007
                  26131837.833 7 102547174.64107  26131838.328 7 111464287.23707
  26131835.666 7 105222299.57707  26131836.660 8 103884740.18108
  21974288.847 7 117547706.31007


  22830014.617 7 119972720.56307  93485343.66205  22830020.457 5  22830014.412 5
  22830020.818 7  22830020.438 7  89590144.18207

  19214640.266 8 102857968.70908  80000896.85108
  19214646.046 8

  24968566.317 7 131210779.03507
                  24968572.458 7  97982144.19407  24968569.950 7 106502299.74707
  24968570.325 7 100538184.70107  24968571.390 8  99260164.52108
  23514154.377 8 123568053.81008
                  23514156.577 8  92275056.59708  23514158.241 8 100298902.45108
  23514154.809 8  94682202.37208  23514155.590 8  93478635.05808
  24610073.789 6 129326831.47706 100774193.99803  24610080.318 3  24610073.181 3
  24610081.375 6  24610079.898 7  96575266.71607

  37105632.154 7 194991419.41007
                  37105631.681 6 145610471.49406

  36827742.915 7 193531113.76707
                  36827751.167 7 144520014.28807

  23459474.603 7 123280871.80907
                  23459479.353 8  92060705.97108  23459477.619 8 100065417.60208
  23459477.501 8  94462249.38908  23459478.280 8  93261478.75308
  36978732.201 7 194324562.69307
                  36978735.726 6 145112502.99706

  25311247.217 5 133011480.66305 103645322.50502  25311255.685 2  25311246.475 2


  26541903.900 7 139478960.61907
                  26541908.628 7 104156572.60007  26541907.904 7 113213590.53507
  26541906.427 7 106873675.81207  26541907.411 8 105515121.77908
  22387407.758 7 117647031.90207  91673193.09705  22387413.201 5  22387407.589 5
  22387413.726 7  22387411.495 7  87853559.43407

  28378942.095 5 149132374.26005
                  28378952.076 6 111365128.84306  28378948.354 6 121049032.08506
  28378949.813 6 114270293.71706  28378951.301 6 112817717.84706
  22054917.179 7 115899447.67007  90311313.03306  22054920.612 6  22054916.656 6
  22054921.548 7  22054919.613 7  86548347.02207

  24663729.448 6 129608806.24506 100993933.62103  24663735.815 3  24663729.212 3
  24663736.582 5

  27960878.833 6 146935395.99006
                  27960891.528 6 109724511.21506  27960888.490 6 119265764.91506
  27960888.962 6 112586883.86106  27960890.303 6 111155701.61106
 25  4 11  2  3  0.0000000  0 27G18G15E29G23R22R21G10R08R06E33R23G24
                                R07E13E26G08S33S31E07S35G16E08G32E31
                                G27G29E23
  20902467.674 7 109843528.87807  85592513.37506  20902469.540 6  20902467.420 6
  20902469.835 8  20902472.640 8  82026218.01208

  22683882.449 7 119205094.32207  92887337.67705  22683885.435 5  22683882.172 5
  22683885.928 6

  24816446.862 7 130411760.93507
                  24816451.894 7  97385685.63707  24816452.050 7 105853905.03507
  24816449.739 7  99926145.43407  24816450.791 8  98655810.60808
  20784485.281 8 109223667.29008  85109628.13806  20784486.618 6  20784485.027 6
  20784486.939 7  20784489.594 8  81563414.19908

  19290007.791 8 102971503.07508  80089030.73807
  19290012.434 7

  20759966.286 8 111091030.61908  86404296.44607
  20759973.109 7

  21578692.781 8 113397129.93408  88361604.08606  21578696.223 6  21578692.446 6
  21578695.904 7  21578693.264 8  84679887.12208

  20631252.958 8 110479815.12908  85928934.09807
  20631259.309 7

  21740750.965 6 116012886.41206


  26125686.623 7 137291587.24107
                  26125691.251 7 102523054.48207  26125691.800 7 111438069.67007
  26125689.191 7 105197550.19807  26125690.128 8 103860305.41208
  21963817.225 7 117491693.77607


  22826819.185 7 119955927.13107  93472257.90305  22826824.754 5  22826818.980 5
  22826825.168 7  22826824.758 7  89577603.66207

  19217569.815 8 102873650.29908  80013093.64707
  19217575.264 7

  24972259.015 7 131230183.91707
                  24972265.098 7  97996634.84307  24972262.328 7 106518050.45107
  24972262.984 7 100553053.37107  24972264.020 8  99274844.18008
  23511995.512 8 123556708.88008
                  23511997.761 8  92266584.74808  23511999.285 8 100289693.91608
  23511996.014 8  94673509.51608  23511996.709 8  93470052.70508
  24602320.045 6 129286085.90106 100742444.25203  24602326.792 3  24602319.442 3
  24602328.099 6  24602326.096 7  96544839.88307

  37105636.442 7 194991429.26607
                  37105633.524 6 145610478.80606

  36827740.987 7 193531108.11607
                  36827750.156 7 144520009.91407

  23459879.198 7 123282997.95907
                  23459883.906 8  92062293.69508  23459882.146 8 100067143.38608
  23459882.077 8  94463878.52608  23459882.863 8  93263087.18408
  36978742.387 7 194324613.39307
                  36978745.572 6 145112540.73906

  25317494.956 6 133044312.38606 103670905.61602  25317503.476 2  25317494.214 2


  26548821.684 7 139515314.24607
                  26548826.620 7 104183719.77907  26548825.658 7 113243098.34707
  26548824.263 7 106901531.18007  26548825.275 8 105542623.05408
  22379057.728 7 117603151.53207  91639000.65905  22379062.942 5  22379057.581 5
  22379063.527 7  22379061.241 7  87820791.68507

  28381833.161 5 149147565.28605
                  28381843.163 6 111376472.74606  28381838.843 6 121061362.45106
  28381840.733 6 114281933.57006  28381842.169 6 112829209.72906
  22051585.462 7 115881942.55807  90297672.69906  22051589.567 6  22051584.921 6
  22051589.779 7  22051588.354 7  86535275.03007

  24674655.129 6 129666221.06306 101038672.38203  24674662.194 3  24674654.875 3
  24674662.554 6

  27966935.791 6 146967225.06106
                  27966948.141 6 109748279.56006  27966945.400 6 119291600.13706
  27966946.462 6 112611272.26006  27966947.210 6 111179779.98706
 25  4 11  2  3 15.0000000  0 27G18G15E29G23R22R21G10R08R06E33R23G24
                                R07E13E26G08S33S31E07S35G16E08G32E31
                                G27G29E23
  20905432.393 7 109859107.06307  85604652.21706  20905433.966 6  20905432.148 6
  20905434.170 7  20905437.038 8  82037851.06508

  22693442.573 7 119255332.82907  92926484.53905  22693445.514 5  22693442.296 5
  22693445.860 6

  24809524.685 7 130375385.31007
                  24809529.855 7  97358522.06907  24809529.764 7 105824379.39607
  24809527.665 7  99898273.24107  24809528.693 8  98628292.72708
  20787044.268 8 109237114.94908  85120106.83306  20787045.621 6  20787044.009 6
  20787046.123 7  20787048.662 8  81573456.28308

  19286304.448 8 102951732.44808  80073653.59407
  19286308.641 7

  20767536.539 8 111131541.62808  86435805.00307
  20767543.914 7

  21576132.882 8 113383678.01508  88351122.08606  21576136.452 6  21576132.556 6
  21576136.481 7  21576133.413 8  84669841.87208

  20624497.961 8 110443643.32208  85900800.51807
  20624504.493 7

  21750712.521 6 116066040.55206


  26119539.114 7 137259280.14307
                  26119543.323 7 102498929.10507  26119543.782 7 111411846.40807
  26119541.289 7 105172795.44807  26119542.269 7 103835865.35007
  21953352.662 7 117435713.41007


  22823647.391 7 119939257.87907  93459268.91005  22823653.050 5  22823647.186 5
  22823653.219 7  22823652.602 7  89565155.90107

  19220525.418 8 102889472.09408  80025399.49107
  19220530.894 7

  24975960.685 7 131249636.58107
                  24975966.785 7  98011161.17607  24975964.356 7 106533839.94807
  24975964.657 7 100567958.65407  24975965.763 8  99289559.98908
  23509843.888 8 123545401.11908
                  23509845.917 8  92258140.65108  23509847.488 8 100280515.54908
  23509844.162 8  94664845.14208  23509844.906 8  93461498.47008
  24594581.747 6 129245420.45406 100710756.94303  24594588.636 3  24594581.135 3
  24594589.300 6  24594587.681 7  96514472.89107

  37105636.352 7 194991438.07707
                  37105635.259 6 145610485.29806

  36827739.709 7 193531101.57707
                  36827748.810 7 144520004.98407

  23460302.613 7 123285223.59707
                  23460307.478 8  92063955.71408  23460305.636 8 100068949.91808
  23460305.561 8  94465583.90108  23460306.366 8  93264770.88108
  36978753.204 7 194324663.02007
                  36978754.923 6 145112577.82306

  25323746.843 5 133077164.75805 103696504.76502  25323755.234 2  25323746.039 2


  26555748.698 7 139551714.87607
                  26555753.347 7 104210902.05907  26555752.372 7 113272644.30807
  26555751.129 7 106929422.56607  26555752.154 8 105570159.88708
  22370721.698 7 117559346.00507  91604866.53805  22370727.042 5  22370721.555 5
  22370726.984 7  22370725.341 7  87788079.84307

  28384737.740 6 149162829.03306
                  28384747.970 6 111387870.97706  28384743.013 6 121073751.82006
  28384745.513 6 114293629.15206  28384746.748 6 112840756.63106
  22048280.718 7 115864576.35707  90284140.60306  22048284.921 6  22048280.168 6
  22048285.215 7  22048283.688 7  86522306.78007

  24685579.712 6 129723633.15006 101083408.99503  24685587.655 3  24685579.408 3
  24685587.946 6

  27972993.954 6 146999059.34306
                  27973006.527 6 109772051.80706  27973003.035 6 119317439.55906
  27973004.093 6 112635664.68706  27973005.168 6 111203862.32306
 25  4 11  2  3 30.0000000  0 27G18G15E29G23R22R21G10R08R06E33R23G24
                                R07E13E26G08S33S31E07S35G16E08G32E31
                                G27G29E23
  20908414.838 7 109874781.50207  85616866.05706  20908416.722 6  20908414.588 6
  20908416.896 7  20908419.817 8  82049555.99508

  22703013.467 7 119305628.61907  92965676.04005  22703016.360 5  22703013.195 5
  22703016.931 6

  24802614.266 7 130339071.25407
                  24802619.484 7  97331404.48007  24802619.675 7 105794903.74407
  24802617.323 7  99870448.23807  24802618.310 8  98600821.43108
  20789610.212 8 109250600.06008  85130614.71106  20789611.733 6  20789609.944 6
  20789611.980 7  20789614.807 8  81583526.33008

  19282626.888 8 102932103.23108  80058386.43507
  19282631.545 7

  20775131.128 8 111172182.57108  86467414.59707
  20775138.187 7

  21573581.009 8 113370267.56608  88340672.38906  21573584.532 6  21573580.683 6
  21573584.304 7  21573581.569 8  84659827.58608

  20617767.945 8 110407601.35808  85872767.91207
  20617773.890 7

  21760680.065 6 116119228.19606


  26113389.815 7 137226968.05007
                  26113394.463 7 102474799.96507  26113395.014 7 111385619.07807
  26113392.603 7 105148036.86307  26113393.439 7 103811421.48807
  21942893.946 7 117379767.39307


  22820498.674 7 119922714.99807  93446378.38905  22820505.251 5  22820498.469 5
  22820504.571 7  22820504.589 7  89552802.48607

  19223507.493 8 102905435.36508  80037815.37507
  19223513.343 7

  24979671.824 7 131269138.94307
                  24979678.090 7  98025724.61007  24979675.655 7 106549669.78107
  24979675.815 7 100582902.00507  24979676.937 8  99304313.38108
  23507699.465 8 123534132.54608
                  23507701.577 8  92249725.81908  23507703.183 8 100271368.98608
  23507699.832 8  94656210.78508  23507700.557 8  93452973.87608
  24586858.781 6 129204837.31306 100679133.77003  24586865.777 3  24586858.160 3
  24586867.124 6  24586864.751 7  96484167.36107

  37105637.014 7 194991447.32007
                  37105636.976 6 145610492.24006

  36827738.872 7 193531095.69807
                  36827747.630 7 144520000.68507

  23460745.218 7 123287550.53307
                  23460750.253 8  92065693.37008  23460748.410 8 100070838.66608
  23460748.330 8  94467366.88308  23460749.151 8  93266531.20008
  36978762.044 7 194324713.35707
                  36978764.496 6 145112615.60506

  25330002.973 6 133110039.42506 103722121.28802  25330011.128 2  25330002.164 2


  26562684.681 7 139588164.18707
                  26562689.275 7 104238120.67607  26562688.726 7 113302229.76707
  26562687.300 7 106957351.22807  26562688.217 8 105597733.52608
  22362400.649 7 117515617.46407  91570792.40705  22362405.674 5  22362400.502 5
  22362406.308 7  22362403.979 7  87755425.47407

  28387656.860 6 149178167.23406
                  28387666.535 6 111399324.80706  28387661.872 5 121086201.63905
  28387663.997 6 114305381.78406  28387665.492 6 112852359.86506
  22045003.010 7 115847351.11807  90270718.35306  22045007.030 6  22045002.452 6
  22045007.348 7  22045005.829 7  86509443.78807

  24696505.549 6 129781044.02406 101128144.66903  24696512.764 3  24696505.219 3
  24696513.179 5

  27979053.041 6 147030900.45506
                  27979065.481 6 109795829.17206  27979062.359 6 119343284.56406
  27979063.360 6 112660062.32406  27979064.426 6 111227949.82406
 25  4 11  2  3 45.0000000  0 27G18G15E29G23R22R21G10R08R06E33R23G24
                                R07E13E26G08S33S31E07S35G16E08G32E31
                                G27G29E23
  20911415.779 7 109890550.63107  85629153.68406  20911417.507 6  20911415.529 6
  20911417.672 7  20911420.602 8  82061331.64008

  22712595.313 7 119355979.59307  93004910.53805  22712597.701 5  22712595.050 5
  22712598.707 6

  24795715.503 7 130302817.30207
                  24795720.513 7  97304331.77507  24795720.556 7 105765476.87107
  24795718.402 7  99842669.28307  24795719.374 8  98573395.60108
  20792183.258 8 109264120.90908  85141150.43706  20792184.758 6  20792182.986 6
  20792185.027 7  20792187.731 8  81593623.06608

  19278975.998 8 102912614.23408  80043228.32707
  19278980.382 7

  20782750.050 8 111212951.79608  86499123.98107
  20782757.556 7

  21571036.358 8 113356896.85808  88330253.66006  21571040.193 6  21571036.028 6
  21571040.021 7  21571037.172 8  84649842.97608

  20611060.380 8 110371687.53808  85844835.00407
  20611066.985 7

  21770653.621 6 116172447.23406


  26107239.812 7 137194649.37407
                  26107244.468 7 102450665.92907  26107244.974 7 111359386.41707
  26107242.465 7 105123273.23207  26107243.380 7 103786972.65307
  21932441.858 7 117323854.59307


  22817374.425 7 119906297.11907  93433585.27305  22817380.678 5  22817374.224 5
  22817381.119 7  22817380.089 7  89540542.41907

  19226515.696 8 102921538.62208  80050340.12508
  19226521.209 8

  24983392.275 7 131288689.41707
                  24983398.352 7  98040323.97607  24983395.802 7 106565538.66407
  24983396.214 7 100597882.23207  24983397.292 8  99319103.17808
  23505562.153 8 123522901.64808
                  23505564.386 8  92241339.11608  23505565.983 8 100262253.00408
  23505562.625 8  94647605.30108  23505563.390 8  93444477.78208
  24579151.916 6 129164335.11206 100647573.66903  24579158.851 3  24579151.299 3
  24579160.020 6  24579157.562 7  96453922.27107

  37105641.025 7 194991456.14907
                  37105638.706 6 145610498.92206

  36827737.285 7 193531088.95407
                  36827746.422 7 144519995.70007

  23461207.198 8 123289977.02408
                  23461212.042 8  92067505.38108  23461210.191 8 100072808.24308
  23461210.014 8  94469226.16308  23461210.882 8  93268366.84508
  36978771.479 7 194324762.67907
                  36978773.847 6 145112652.28306

  25336262.412 5 133142934.12905 103747753.43702  25336270.885 2  25336261.581 2


  26569629.678 7 139624660.27607
                  26569634.400 7 104265374.23607  26569633.447 7 113331853.20607
  26569632.047 7 106985315.76207  26569633.157 7 105625342.57207
  22354093.605 7 117471964.45407  91536777.13805  22354098.732 5  22354093.440 5
  22354099.369 7  22354097.042 7  87722827.51707

  28390588.968 6 149193578.03306
                  28390599.444 6 111410832.82406  28390594.863 5 121098710.38305
  28390596.608 6 114317190.03506  28390598.116 6 112864018.00206
  22041751.602 7 115830265.29907  90257404.73906  22041755.615 6  22041751.048 6
  22041756.096 7  22041754.552 7  86496684.92207

  24707429.691 6 129838451.75206 101172877.89903  24707436.312 3  24707429.343 3
  24707437.751 5

  27985113.131 6 147062746.51106
                  27985125.751 6 109819610.20906  27985122.847 6 119369133.55306
  27985123.472 6 112684463.75406  27985124.526 6 111252041.05606
 25  4 11  2  4  0.0000000  0 27G18G15E29G23R22R21G10R08R06E33R23G24
                                R07E13E26G08S33S31E07S35G16E08G32E31
                                G27G29E23
  20914435.311 7 109906418.02307  85641517.88106  20914437.006 6  20914435.066 6
  20914437.310 7  20914440.049 8  82073180.66308

  22722188.004 7 119406388.84907  93044190.45305  22722190.673 5  22722187.745 5
  22722190.895 6

  24788828.878 7 130266627.15107
                  24788833.650 7  97277306.70507  24788833.752 7 105736101.77507
  24788831.617 7  99814939.20507  24788832.570 8  98546018.02708
  20794763.658 8 109277680.92008  85151716.67806  20794765.148 6  20794763.390 6
  20794765.380 7  20794768.110 8  81603749.04008

  19275351.889 8 102893269.32108  80028182.29707
  19275356.354 7

  20790393.581 8 111253852.74708  86530935.81107
  20790400.621 7

  21568500.373 8 113343569.34108  88319868.59606  21568504.031 6  21568500.056 6
  21568503.923 7  21568500.974 8  84639890.61708

  20604378.860 8 110335905.88808  85817004.85707
  20604385.377 7

  21780632.181 6 116225700.79506


  26101089.496 7 137162327.76007
                  26101093.923 7 102426529.69307  26101094.421 7 111333151.36207
  26101091.779 7 105098507.34807  26101092.743 7 103762521.59207
  21921996.643 7 117267978.83107


  22814274.587 7 119890008.01907  93420892.50305  22814280.779 5  22814274.373 5
  22814280.740 7  22814280.480 7  89528378.52907

  19229550.225 8 102937784.46108  80062975.77907
  19229556.206 7

  24987122.448 7 131308291.57007
                  24987128.562 7  98054961.94207  24987126.228 7 106581449.49307
  24987126.358 7 100612902.05207  24987127.465 8  99333932.07108
  23503432.997 8 123511712.09908
                  23503435.161 8  92232983.28908  23503436.761 8 100253170.58208
  23503433.285 8  94639031.49508  23503434.088 8  93436012.96508
  24571460.076 6 129123917.67106 100616079.61403  24571467.701 3  24571459.446 3
  24571468.324 6  24571466.388 7  96423740.49007

  37105642.170 7 194991467.23807
                  37105640.777 6 145610507.12706

  36827736.690 7 193531084.72807
                  36827745.622 7 144519992.62707

  23461688.545 8 123292506.57508
                  23461693.345 8  92069394.34008  23461691.483 8 100074861.45308
  23461691.355 8  94471164.39508  23461692.221 8  93270280.44108
  36978781.339 7 194324814.89107
                  36978783.791 6 145112691.32506

  25342527.549 5 133175852.04305 103773403.65302  25342535.199 2  25342526.695 2


  26576584.266 7 139661206.47107
                  26576589.002 7 104292665.20907  26576588.013 7 113361517.31907
  26576586.502 7 107013318.67707  26576587.688 7 105652989.51707
  22345801.651 7 117428390.78407  91502823.68105  22345806.757 5  22345801.486 5
  22345807.849 7  22345805.150 7  87690288.80807

  28393535.923 6 149209064.78506
                  28393546.473 6 111422397.58506  28393542.051 5 121111280.78705
  28393544.073 6 114329056.45806  28393545.161 6 112875733.59706
  22038528.007 7 115813322.54507  90244202.60506  22038531.566 6  22038527.462 6
  22038531.637 7  22038530.450 7  86484032.87207

  24718354.168 6 129895859.57906 101217611.20903  24718361.040 3  24718353.833 3
  24718361.868 6

  27991174.825 6 147094600.78506
                  27991187.681 6 109843397.39606  27991183.884 6 119394989.22306
  27991185.396 6 112708871.48006  27991186.329 6 111276138.51206
 25  4 11  2  4 15.0000000  0 27G18G15E29G23R22R21G10R08R06E33R23G24
                                R07E13E26G08S33S31E07S35G16E08G32E31
                                G27G29E23
  20917472.552 7 109922378.99807  85653954.99806  20917474.293 6  20917472.311 6
  20917474.466 8  20917477.365 8  82085099.56008

  22731790.781 7 119456851.20907  93083511.75305  22731793.304 5  22731790.536 5
  22731793.667 6

  24781953.154 7 130230496.16307
                  24781958.136 7  97250325.82707  24781958.180 7 105706774.71707
  24781956.068 7  99787254.47107  24781957.048 8  98518685.22108
  20797350.442 8 109291275.21808  85162309.63806  20797352.022 6  20797350.165 6
  20797352.211 7  20797355.005 8  81613900.63208

  19271754.612 8 102874064.03108  80013244.85107
  19271758.460 7

  20798059.897 8 111294880.08608  86562845.95807
  20798067.581 7

