     2.11           OBSERVATION DATA    M                   RINEX VERSION / TYPE
ssrcrin-13.7.0x                         11-APR-25 00:00     PGM / RUN BY / DATE 
(000000000000583293750002) Septentrio proprietary           COMMENT             
SEPT                                                        MARKER NAME         
Unknown                                                     MARKER NUMBER       
Unknown             Unknown                                 OBSERVER / AGENCY   
3083514             SEPT POLARX5E       5.4.0               REC # / TYPE / VERS 
Unknown             Unknown                                 ANT # / TYPE        
 -1908063.4162 -5042727.2115  3400842.0891                  APPROX POSITION XYZ 
        0.0000        0.0000        0.0000                  ANTENNA: DELTA H/E/N
     1     1                                                WAVELENGTH FACT L1/2
    14    C1    L1    L2    P2    P1    C2    C5    L5    C6# / TYPES OF OBSERV 
          L6    C7    L7    C8    L8                        # / TYPES OF OBSERV 
For GPS, L2 corresponds to the L2P carrier phase.           COMMENT             
For GLONASS, L2 corresponds to the L2CA carrier phase.      COMMENT             
  2025     4    11     0     0    0.0000000     GPS         TIME OF FIRST OBS   
                                                            END OF HEADER       
 25  4 11  0  0  0.0000000  0 30G18R20G15G05G23R22R21G13G10G25R06E03
                                G26R07E13E27E26E15S33S31E07S35G16E21
                                E08R12R05G29E23R11
  21181584.617 8 111310285.84908  86735438.03306  21181586.993 6  21181584.372 6
  21181587.178 7  21181590.192 8  83121520.20708

  21351825.392 6 114177829.44006  88805033.22707
  21351836.342 7

  20506393.657 8 107762314.08508  83970885.96907  20506396.179 7  20506393.353 7
  20506396.266 7

  23010038.234 7 120918711.58807  94222464.78505  23010041.742 5  23010038.020 5
  23010042.537 6

  20838286.061 7 109506368.92107  85329909.07306  20838288.910 6  20838285.865 6
  20838288.973 7  20838292.484 8  81774515.45908

  22857187.009 7 122013286.75007  94899292.08706
  22857194.329 6

  19979325.097 8 106913672.43408  83155241.73108
  19979332.523 8

  22284053.423 7 117103728.56107  91249786.02805  22284057.147 5  22284052.967 5


  24048229.643 6 126374511.05906  98473817.74404  24048241.320 4  24048229.380 4
  24048240.689 6  24048239.636 7  94370751.85607

  24943674.703 6 131079685.70606 102139988.75203  24943692.040 3  24943673.988 3
  24943692.652 6  24943694.498 6  97884146.91706

  19231932.939 6 102625354.02806


  27577347.962 6 144920081.19506
                  27577358.293 6 108219660.26506  27577355.067 6 117629842.33606
  27577355.815 7 111042764.29907  27577356.981 7 109631215.35707
  23872381.216 6 125450242.97006  97753482.74804  23872390.309 4  23872380.729 4
  23872390.743 6  23872388.735 7  93680417.74507

  21433469.643 7 114735449.92107  89238916.06107
  21433480.302 7

  23982548.455 8 126029222.29108
                  23982554.458 8  94112800.53008  23982551.901 7 102296491.17907
  23982552.339 8  96567901.56508  23982553.368 8  95340351.12108
  28042608.582 6 147364686.04206
                  28042629.701 6 110045011.21706  28042624.167 6 119614327.67306
  28042625.831 6 112915750.41806  28042627.646 6 111480383.39406
  25024631.322 7 131505632.00607
                  25024636.019 7  98202459.70507  25024636.334 7 106741735.38107
  25024633.805 7 100764234.47307  25024634.774 8  99483352.66308
  26965280.711 6 141703432.85906
                  26965292.710 7 105817497.83207  26965288.534 6 115019019.35806
  26965289.790 7 108577948.18007  26965291.161 7 107197723.07807
  37103727.627 7 194981377.57007
                  37103726.739 6 145602996.05306

  36827715.079 7 193530949.50307
                  36827725.947 7 144519914.84907

  25436519.098 7 133670234.11107
                  25436528.769 7  99818974.39007  25436524.820 7 108498326.22207
  25436526.224 7 102422909.95307  25436527.476 8 101120943.24508
  36973921.830 7 194299260.37907
                  36973927.752 6 145093640.81106

  24001691.188 6 126129778.19106  98282972.10204  24001696.514 4  24001690.241 4


  25703287.261 7 135071700.20707
                  25703296.542 7 100865274.84207  25703295.295 7 109636160.19007
  25703294.156 7 103496533.62107  25703295.139 8 102180907.30608
  24950421.061 7 131115655.67907
                  24950426.335 7  97911245.29007  24950425.532 7 106425192.09707
  24950424.345 8 100465427.17408  24950425.326 8  99188333.80508
  23485643.130 7 125456104.55107  97577012.52106
  23485653.016 6

  21920738.382 8 117179220.98908  91139575.79707
  21920746.164 7

  20474156.719 8 107592537.19308  83838420.16607  20474158.855 7  20474156.317 7
  20474159.046 7

  26053715.669 7 136913255.49707
                  26053723.254 7 102240465.95107  26053721.383 7 111130925.30207
  26053721.327 7 104907600.23807  26053722.196 7 103574037.16607
  23749724.672 6 126911203.77706  98708694.98106
  23749741.256 6

 25  4 11  0  0 15.0000000  0 30G18R20G15G05G23R22R21G13G10G25R06E03
                                G26R07E13E27E26E15S33S31E07S35G16E21
                                E08R12R05G29E23R11
  21178557.847 8 111294379.71108  86723043.66406  21178560.102 6  21178557.606 6
  21178560.328 7  21178563.326 8  83109642.27608

  21356212.042 6 114201292.28106  88823282.09307
  21356224.163 7

  20503997.355 8 107749721.86408  83961073.87807  20503999.939 7  20503997.056 7
  20504000.277 7

  23018851.901 7 120965027.97107  94258555.44505  23018855.565 5  23018851.682 5
  23018856.396 6

  20834554.882 7 109486761.47207  85314630.58606  20834557.708 6  20834554.695 6
  20834558.195 7  20834561.209 8  81759873.58808

  22848943.995 7 121969286.59707  94865069.79406
  22848952.040 6

  19976108.371 8 106896459.87308  83141854.20207
  19976115.618 7

  22286534.801 7 117116767.12207  91259945.96405  22286538.093 5  22286534.345 5


  24040509.405 6 126333941.76106  98442205.49104  24040520.988 4  24040509.146 4
  24040520.771 6  24040519.455 7  94340456.81907

  24952410.264 5 131125594.04405 102175761.30503  24952428.168 3  24952409.558 3
  24952428.435 6  24952430.761 6  97918428.90106

  19229354.899 6 102611599.44406


  27582478.486 6 144947040.24206
                  27582488.430 6 108239791.99706  27582485.223 6 117651724.66206
  27582486.034 7 111063421.20607  27582487.198 7 109651609.67607
  23874325.919 6 125460459.80706  97761443.90804  23874334.436 4  23874325.423 4
  23874334.779 6  23874332.879 7  93688047.16007

  21422394.728 7 114676169.45507  89192809.18307
  21422406.578 7

  23983504.685 8 126034246.88608
                  23983510.576 8  94116552.66708  23983508.061 7 102300569.58507
  23983508.460 8  96571751.58608  23983509.508 8  95344152.20008
  28050630.877 6 147406840.18106
                  28050651.659 6 110076489.77306  28050646.305 6 119648543.56506
  28050647.879 6 112948050.16306  28050649.455 7 111512272.54507
  25021203.696 7 131487619.67107
                  25021208.349 7  98189008.96807  25021208.897 7 106727114.99807
  25021206.072 7 100750432.83907  25021207.110 8  99469726.47808
  26969644.615 6 141726360.63406
                  26969655.501 7 105834619.18207  26969651.713 6 115037629.53006
  26969652.871 7 108595516.19207  26969654.213 7 107215067.76007
  37103732.617 7 194981410.13707
                  37103732.802 6 145603020.49206

  36827715.714 7 193530957.72907
                  36827727.485 7 144519920.99107

  25429064.414 7 133631061.42707
                  25429074.283 7  99789722.17307  25429070.697 7 108466530.28807
  25429071.792 7 102392894.61507  25429073.053 8 101091309.46808
  36973929.960 7 194299311.27307
                  36973937.487 6 145093678.60806

  23998929.169 6 126115261.39606  98271660.33604  23998934.071 4  23998928.239 4


  25709563.088 7 135104680.12307
                  25709572.360 7 100889902.64507  25709571.214 7 109662929.57107
  25709570.103 7 103521803.90807  25709571.056 8 102205856.35108
  24949070.564 7 131108557.90007
                  24949075.663 7  97905945.03707  24949074.825 7 106419430.94007
  24949073.631 8 100459988.65008  24949074.642 8  99182964.41608
  23488410.056 7 125470883.30007  97588507.06906
  23488420.488 6

  21930740.366 8 117232693.12008  91181165.21307
  21930748.910 7

  20478170.376 8 107613628.05508  83854854.59107  20478172.368 7  20478169.983 7
  20478172.737 7

  26053876.627 7 136914103.76407
                  26053884.798 7 102241099.41007  26053882.785 7 111131613.83907
  26053882.895 7 104908250.21607  26053883.613 7 103574678.88507
  23758547.136 6 126958353.67006  98745366.91506
  23758564.217 6

 25  4 11  0  0 30.0000000  0 30G18R20G15G05G23R22R21G13G10G25R06E03
                                G26R07E13E27E26E15S33S31E07S35G16E21
                                E08R12R05G29E23R11
  21175537.239 8 111278507.10308  86710675.42006  21175539.651 6  21175536.989 6
  21175539.635 7  21175542.891 8  83097789.37908

  21360615.246 6 114224830.89206  88841589.88007
  21360626.043 7

  20501630.595 8 107737285.55308  83951383.27807  20501633.333 7  20501630.291 7
  20501633.532 7

  23027668.715 7 121011361.13807  94294659.18105  23027672.523 5  23027668.487 5
  23027673.023 6

  20830841.402 7 109467247.73707  85299425.11506  20830844.343 6  20830841.219 6
  20830844.915 7  20830847.851 8  81745301.69108

  22840697.522 7 121925269.18207  94830834.08906
  22840705.603 6

  19972903.918 8 106879311.26008  83128516.40207
  19972910.776 7

  22289044.366 7 117129956.80907  91270223.65605  22289047.849 5  22289043.910 5


  24032799.957 6 126293426.78806  98410635.57804  24032811.289 4  24032799.716 4
  24032810.562 6  24032809.392 7  94310202.36207

  24961138.104 6 131171457.74006 102211499.04203  24961156.038 3  24961137.376 3
  24961156.890 6  24961158.318 6  97952677.54906

  19226814.803 6 102598044.05606


  27587623.450 6 144974079.01206
                  27587633.598 6 108259983.24606  27587630.573 6 117673671.68506
  27587631.600 7 111084139.19207  27587632.528 7 109672064.29307
  23876291.365 6 125470786.61306  97769490.75504  23876299.504 4  23876290.883 4
  23876299.901 6  23876298.202 7  93695758.73907

  21411337.102 7 114616978.96307  89146772.26507
  21411349.658 7

  23984463.105 8 126039283.52908
                  23984468.938 8  94120313.81008  23984466.405 7 102304657.78007
  23984466.948 8  96575610.84708  23984467.943 8  95347962.40308
  28058646.702 6 147448964.15106
                  28058667.947 6 110107945.79106  28058661.917 6 119682734.94206
  28058663.736 6 112980326.79206  28058665.581 7 111544138.86707
  25017776.601 7 131469610.68407
                  25017781.338 7  98175560.74407  25017781.771 7 106712497.34107
  25017779.094 7 100736633.79307  25017780.090 8  99456102.84308
  26974008.901 6 141749295.39106
                  26974020.117 7 105851745.74607  26974015.916 6 115056245.37206
  26974017.323 7 108613089.52807  26974018.593 7 107232417.71407
  37103738.390 7 194981442.65307
                  37103739.219 6 145603044.59206

  36827720.959 7 193530965.57307
                  36827728.974 7 144519926.68807

  25421618.142 7 133591929.88407
                  25421627.732 7  99760500.67207  25421623.768 7 108434767.74707
  25421625.285 7 102362910.80707  25421626.464 8 101061706.81408
  36973941.157 7 194299362.62507
                  36973947.302 6 145093717.15906

  23996192.784 6 126100878.86306  98260453.19104  23996196.691 4  23996191.859 4


  25715849.175 7 135137712.56707
                  25715858.223 7 100914569.68307  25715857.184 7 109689741.57707
  25715855.938 7 103547114.43807  25715856.955 8 102230845.13408
  24947739.858 7 131101564.53307
                  24947744.837 7  97900722.75607  24947744.027 7 106413754.52807
  24947742.880 7 100454630.13007  24947743.793 8  99177674.01608
  23491204.355 7 125485811.76307  97600118.06106
  23491215.090 6

  21940763.680 8 117286266.99308  91222833.75107
  21940771.067 7

  20482208.170 8 107634848.06908  83871389.65707  20482210.423 7  20482207.768 7
  20482210.568 7

  26054057.721 7 136915054.71407
                  26054065.622 7 102241809.54707  26054063.647 7 111132385.71707
  26054063.742 7 104908978.87707  26054064.566 7 103575398.28307
  23767375.030 6 127005524.38006  98782055.04106
  23767392.521 6

 25  4 11  0  0 45.0000000  0 30G18R20G15G05G23R22R21G13G10G25R06E03
                                G26R07E13E27E26E15S33S31E07S35G16E21
                                E08R12R05G29E23R11
  21172522.781 8 111262665.14108  86698331.05706  21172525.057 6  21172522.545 6
  21172525.118 7  21172528.155 8  83085959.37008

  21365030.597 6 114248441.72106  88859953.84607
  21365041.456 7

  20499293.191 8 107725002.30908  83941811.94707  20499295.882 7  20499292.887 7
  20499296.165 7

  23036488.334 7 121057707.76907  94330773.40405  23036491.985 5  23036488.106 5
  23036492.641 6

  20827145.277 7 109447824.76207  85284290.36606  20827148.234 6  20827145.085 6
  20827148.533 7  20827151.759 8  81730797.56108

  22832448.466 7 121881231.62807  94796582.71206
  22832456.568 6

  19969710.610 8 106862223.79908  83115226.15907
  19969717.796 7

  22291582.638 7 117143294.42007  91280616.62405  22291585.911 5  22291582.178 5


  24025098.979 6 126252963.27706  98379105.74704  24025111.146 4  24025098.743 4
  24025110.696 6  24025109.307 7  94279986.31807

  24969856.230 6 131217273.54306 102247199.47803  24969874.749 3  24969855.533 3
  24969875.851 6  24969876.917 6  97986890.42406

  19224311.524 6 102584684.79306


  27592783.623 6 145001194.36506
                  27592793.657 6 108280231.69406  27592790.507 6 117695680.87506
  27592791.457 7 111104915.85507  27592792.338 7 109692576.85107
  23878276.717 6 125481220.34206  97777620.91604  23878285.039 4  23878276.248 4
  23878285.950 6  23878283.618 7  93703550.13107

  21400296.860 7 114557876.17107  89100803.57307
  21400308.038 7

  23985423.171 8 126044329.31008
                  23985429.163 8  94124081.77708  23985426.613 7 102308753.38507
  23985427.129 8  96579477.10408  23985428.116 8  95351779.51408
  28066656.192 5 147491054.79605
                  28066677.534 6 110139376.92006  28066672.065 6 119716899.30406
  28066673.571 6 113012577.87606  28066675.419 7 111575979.96807
  25014349.729 7 131451602.10307
                  25014354.367 7  98162112.82107  25014354.843 7 106697880.02307
  25014352.088 7 100722835.04607  25014353.137 8  99442479.50908
  26978373.845 6 141772234.18706
                  26978385.335 7 105868875.34907  26978381.060 6 115074864.51706
  26978382.472 7 108630666.00007  26978383.732 7 107249770.75007
  37103745.093 7 194981473.36507
                  37103744.773 6 145603067.62806

  36827719.787 7 193530971.23007
                  36827730.043 7 144519931.12507

  25414178.865 7 133552836.78107
                  25414188.421 7  99731307.87007  25414184.520 7 108403036.39807
  25414185.982 7 102332956.43107  25414187.205 8 101032133.22508
  36973951.379 7 194299412.32907
                  36973956.675 6 145093754.34206

  23993480.283 6 126086627.70106  98249348.42404  23993484.791 4  23993479.371 4


  25722144.280 7 135170794.34107
                  25722153.558 7 100939273.56407  25722152.340 7 109716593.64107
  25722151.313 7 103572462.76807  25722152.271 8 102255871.24008
  24946428.019 7 131094672.67507
                  24946433.436 7  97895576.28007  24946432.521 7 106408160.52807
  24946431.356 8 100449349.39808  24946432.293 8  99172460.41308
  23494026.579 7 125500886.65007  97611842.92106
  23494036.810 6

  21950803.457 8 117339939.31108  91264578.86007
  21950812.296 7

  20486270.262 8 107656194.25608  83888023.03707  20486272.489 7  20486269.865 7
  20486272.777 7

  26054257.821 7 136916105.37207
                  26054265.595 7 102242594.13307  26054263.557 7 111133238.54207
  26054263.687 7 104909783.93207  26054264.488 7 103576193.10607
  23776205.704 6 127052712.48506  98818756.68206
  23776223.562 6

 25  4 11  0  1  0.0000000  0 30G18R20G15G05G23R22R21G13G10G25R06E03
                                G26R07E13E27E26E15S33S31E07S35G16E21
                                E08R12R05G29E23R11
  21169514.195 8 111246856.14408  86686012.38206  21169516.711 6  21169513.950 6
  21169516.863 7  21169519.835 8  83074153.97808

  21369459.342 6 114272127.27206  88878375.94207
  21369471.109 7

  20496985.357 8 107712874.68308  83932361.87907  20496988.037 7  20496985.053 7
  20496988.517 7

  23045310.979 7 121104069.95407  94366899.75205  23045314.402 5  23045310.747 5
  23045314.918 6

  20823467.064 7 109428494.71407  85269228.02906  20823469.783 6  20823466.872 6
  20823469.849 7  20823473.378 8  81716362.82508

  22824194.871 7 121837176.33907  94762317.54306
  22824202.833 6

  19966529.325 8 106845200.16908  83101985.58707
  19966536.625 7

  22294149.219 7 117156782.31207  91291126.68305  22294152.613 5  22294148.759 5


  24017409.022 6 126212553.53106  98347617.83504  24017421.015 4  24017408.786 4
  24017420.704 6  24017419.441 7  94249810.42607

  24978566.313 5 131263043.44005 102282864.15203  24978585.099 3  24978565.629 3
  24978585.659 6  24978586.929 6  98021068.98906

  19221845.094 6 102571524.22006


  27597958.396 6 145028388.38506
                  27597968.550 6 108300538.88806  27597965.191 6 117717753.91906
  27597966.283 7 111125752.81207  27597967.213 7 109713148.92507
  23880282.340 7 125491762.93507  97785835.91504  23880291.161 4  23880281.871 4
  23880291.906 6  23880289.946 7  93711422.84007

  21389273.106 7 114498863.77607  89054905.16007
  21389283.853 7

  23986385.524 8 126049386.51108
                  23986391.473 8  94127858.26108  23986389.046 8 102312858.26108
  23986389.521 8  96583352.10708  23986390.463 8  95355605.25808
  28074660.411 6 147533114.09906
                  28074681.156 6 110170784.65806  28074676.319 6 119751038.21306
  28074677.131 6 113044804.97006  28074679.181 7 111607797.38507
  25010923.316 7 131433596.17007
                  25010927.935 7  98148666.86307  25010928.356 7 106683264.84107
  25010925.743 7 100709038.32107  25010926.680 8  99428858.16608
  26982739.578 6 141795179.38306
                  26982751.571 7 105886009.70407  26982747.524 6 115093488.83406
  26982748.757 7 108648247.34507  26982750.071 7 107267128.59607
  37103752.266 7 194981503.63907
                  37103750.711 6 145603090.43506

  36827722.077 7 193530976.98007
                  36827731.049 7 144519935.42807

  25406747.156 7 133513784.56807
                  25406757.061 7  99702145.60907  25406753.279 7 108371338.25007
  25406754.490 7 102303033.41007  25406755.717 8 101002590.58408
  36973958.672 7 194299461.21107
                  36973965.945 6 145093790.73806

  23990793.575 6 126072510.37806  98238347.92604  23990798.320 4  23990792.672 4


  25728449.615 7 135203927.42807
                  25728458.546 7 100964015.76107  25728457.485 7 109743487.34507
  25728456.336 7 103597850.42507  25728457.339 8 102280936.16708
  24945136.398 7 131087884.64807
                  24945141.599 7  97890507.33907  24945140.574 7 106402650.78207
  24945139.588 8 100444148.21008  24945140.526 8  99167325.34708
  23496876.459 7 125516109.90907  97623683.20906
  23496886.413 6

  21960862.801 8 117393711.69808  91306401.80807
  21960871.113 7

  20490357.019 8 107677668.81408  83904756.44607  20490358.966 7  20490356.635 7
  20490359.459 7

  26054477.108 7 136917257.91207
                  26054484.898 7 102243454.79407  26054482.963 7 111134174.03607
  26054483.073 7 104910667.04607  26054483.794 7 103577064.99407
  23785040.593 6 127099919.50006  98855473.04606
  23785057.563 6

 25  4 11  0  1 15.0000000  0 30G18R20G15G05G23R22R21G13G10G25R06E03
                                G26R07E13E27E26E15S33S31E07S35G16E21
                                E08R12R05G29E23R11
  21166512.444 8 111231081.97008  86673720.83806  21166514.973 6  21166512.203 6
  21166515.026 7  21166518.046 8  83062374.58408

  21373903.207 6 114295889.94606  88896858.00607
  21373914.658 7

  20494707.637 8 107700904.37808  83923034.40107  20494710.117 7  20494707.333 7
  20494710.416 7

  23054136.829 7 121150449.29207  94403039.46405  23054140.200 5  23054136.606 5
  23054141.085 6

  20819806.488 7 109409259.34007  85254239.46106  20819809.362 6  20819806.292 6
  20819809.682 7  20819812.936 8  81701998.79108

  22815938.556 7 121793105.17507  94728040.02806
  22815946.355 6

  19963360.654 8 106828242.46608  83088796.27307
  19963367.604 7

  22296745.149 7 117170421.99107  91301755.02505  22296748.296 5  22296744.711 5


  24009729.979 6 126172199.42106  98316173.26204  24009741.410 4  24009729.738 4
  24009741.489 6  24009740.024 7  94219676.10007

  24987268.070 5 131308768.90605 102318494.19603  24987285.875 3  24987267.386 3
  24987286.745 6  24987287.856 6  98055214.43706

  19219416.180 6 102558564.07606


  27603148.608 6 145055662.69706
                  27603158.635 6 108320906.03906  27603155.293 6 117739892.14506
  27603156.415 7 111146651.27307  27603157.394 7 109733781.72907
  23882309.534 6 125502415.99606  97794136.98504  23882318.371 4  23882309.078 4
  23882318.637 6  23882317.145 7  93719378.03707

  21378265.555 7 114439943.88507  89009078.71407
  21378276.515 7

  23987350.589 8 126054456.92208
                  23987356.413 8  94131644.61908  23987353.923 8 102316973.86408
  23987354.381 8  96587237.23908  23987355.323 8  95359441.00208
  28082658.503 6 147575143.67406
                  28082679.421 6 110202170.17606  28082673.995 6 119785152.99106
  28082675.262 6 113077009.26706  28082677.214 7 111639592.29407
  25007497.672 7 131415594.60907
                  25007502.205 7  98135224.18007  25007502.838 7 106668653.21207
  25007500.128 7 100695244.95407  25007501.068 8  99415240.14108
  26987108.033 6 141818132.80706
                  26987119.419 7 105903150.20007  26987115.589 7 115112119.83307
  26987116.722 7 108665834.99407  26987117.996 7 107284492.66707
  37103757.779 7 194981535.14007
                  37103756.735 6 145603113.75806

  36827723.329 7 193530984.08107
                  36827732.346 7 144519940.79907

  25399323.908 7 133474775.29907
                  25399333.795 7  99673015.42607  25399329.759 7 108339674.96807
  25399331.077 7 102273143.29807  25399332.403 8 100973080.43608
  36973968.501 7 194299511.63307
                  36973975.644 6 145093828.53806

  23988132.614 6 126058528.58806  98227453.05804  23988137.830 4  23988131.743 4


  25734764.479 7 135237113.36907
                  25734773.625 7 100988797.42307  25734772.567 7 109770423.96107
  25734771.461 7 103623278.57207  25734772.428 8 102306041.07108
  24943864.900 7 131081202.30907
                  24943869.891 7  97885517.31507  24943868.787 7 106397226.83907
  24943867.911 8 100439028.01408  24943868.877 8  99162270.23808
  23499755.013 7 125531482.95107  97635640.00306
  23499764.526 6

  21970941.236 8 117447585.57708  91348303.69007
  21970949.443 7

  20494467.955 8 107699273.35708  83921591.14207  20494470.203 7  20494467.571 7
  20494470.343 7

  26054716.053 7 136918514.05907
                  26054723.887 7 102244392.83207  26054721.882 7 111135193.63807
  26054722.026 7 104911629.55007  26054722.829 7 103578015.26507
  23793879.290 6 127147146.95206  98892205.32306
  23793895.935 6

 25  4 11  0  1 30.0000000  0 30G18R20G15G05G23R22R21G13G10G25R06E03
                                G26R07E13E27E26E15S33S31E07S35G16E21
                                E08R12R05G29E23R11
  21163517.081 8 111215341.07008  86661455.22306  21163519.491 6  21163516.840 6
  21163519.771 7  21163522.644 8  83050620.04008

  21378361.305 6 114319727.91806  88915398.62607
  21378372.398 7

  20492459.265 8 107689089.94908  83913828.38107  20492461.874 7  20492458.961 7
  20492462.102 7

  23062965.104 7 121196843.79307  94439190.99605  23062968.985 5  23062964.876 5
  23062969.501 6

  20816163.708 7 109390116.98707  85239323.37706  20816166.703 6  20816163.507 6
  20816166.933 7  20816170.250 8  81687704.22108

  22807679.487 7 121749016.66507  94693749.02906
  22807687.744 6

  19960203.406 8 106811349.38608  83075657.23107
  19960210.776 7

  22299369.055 7 117184211.87207  91312500.39605  22299372.414 5  22299368.608 5


  24002061.238 6 126131899.42606  98284770.85604  24002072.452 4  24002060.979 4
  24002072.096 6  24002071.155 7  94189582.16507

  24995960.406 5 131354448.06305 102354088.15503  24995978.414 3  24995959.754 3
  24995980.194 6  24995981.260 6  98089325.24006

  19217025.189 6 102545802.90006


  27608353.294 6 145083015.47706
                  27608363.747 6 108341331.77906  27608360.647 6 117762094.05006
  27608361.467 7 111167609.87007  27608362.483 7 109754473.89707
  23884357.680 6 125513177.69206  97802522.71704  23884366.244 4  23884357.220 4
  23884366.886 6  23884365.104 7  93727414.34707

  21367276.399 7 114381115.57307  88963323.50107
  21367286.373 7

  23988317.480 8 126059538.98608
                  23988323.452 8  94135439.67508  23988321.029 8 102321098.91708
  23988321.344 8  96591131.29208  23988322.401 8  95363285.55608
  28090650.747 6 147617141.66306
                  28090671.668 6 110233532.13806  28090666.735 6 119819242.13606
  28090667.261 6 113109189.38606  28090669.395 7 111671363.33007
  25004072.565 7 131397595.77007
                  25004077.155 7  98121783.52007  25004077.702 7 106654043.79507
  25004074.977 7 100681453.67207  25004075.957 8  99401624.16908
  26991477.037 6 141841092.85406
                  26991488.627 7 105920295.66307  26991484.679 7 115130756.20807
  26991485.895 7 108683427.72807  26991487.169 7 107301861.77007
  37103763.990 7 194981566.95007
                  37103762.646 6 145603137.48006

  36827723.530 7 193530990.79507
                  36827733.723 7 144519945.75807

  25391908.513 7 133435807.62007
                  25391918.554 7  99643916.29207  25391914.493 7 108308045.43207
  25391915.622 7 102243285.03107  25391917.022 8 100943601.73608
  36973976.165 7 194299562.10507
                  36973985.119 6 145093866.03706

  23985498.174 6 126044680.88106  98216662.66904  23985502.274 4  23985497.316 4


  25741089.357 7 135270350.27907
                  25741098.506 7 101013617.14107  25741097.643 7 109797401.92907
  25741096.264 7 103648745.76107  25741097.252 8 102331184.52608
  24942613.013 7 131074624.08407
                  24942618.078 7  97880605.05207  24942617.393 7 106391887.40207
  24942616.074 8 100433987.59608  24942617.060 8  99157293.89808
  23502659.288 7 125547004.05807  97647711.94506
  23502670.664 6

  21981037.002 8 117501558.60008  91390282.68407
  21981046.226 7

  20498603.346 8 107721006.26508  83938525.85707  20498605.882 7  20498602.957 7
  20498605.911 7

  26054974.616 7 136919872.14307
                  26054982.414 7 102245406.98407  26054980.213 7 111136295.98307
  26054980.471 7 104912670.17507  26054981.258 7 103579042.65407
  23802719.632 6 127194392.62706  98928951.77106
  23802736.963 6

 25  4 11  0  1 45.0000000  0 30G18R20G15G05G23R22R21G13G10G25R06E03
                                G26R07E13E27E26E15S33S31E07S35G16E21
                                E08R12R05G29E23R11
  21160527.982 8 111199632.43708  86649214.75706  21160530.212 6  21160527.746 6
  21160530.519 7  21160533.341 8  83038889.60308

  21382832.489 6 114343640.60506  88933997.35707
  21382844.074 7

  20490240.823 8 107677430.51308  83904743.13607  20490243.122 7  20490240.528 7
  20490243.323 7

  23071796.382 7 121243252.28607  94475353.41905  23071800.471 5  23071796.159 5
  23071800.900 6

  20812538.686 7 109371066.55307  85224478.92206  20812541.487 6  20812538.476 6
  20812541.605 7  20812545.032 8  81673478.29008

  22799417.569 7 121704909.89107  94659443.81506
  22799424.444 6

  19957058.593 8 106794519.94208  83062567.66807
  19957065.603 7

  22302021.674 7 117198150.80307  91323361.91605  22302024.802 5  22302021.236 5


  23994402.431 6 126091652.61106  98253409.88404  23994413.726 4  23994402.145 4
  23994413.773 6  23994412.471 7  94159527.93507

  25004642.743 6 131400079.49806 102389644.92903  25004662.233 3  25004642.086 3
  25004663.154 6  25004664.317 6  98123400.44706

  19214670.862 6 102533239.64306


  27613573.209 6 145110445.48706
                  27613583.398 6 108361815.20806  27613580.165 6 117784358.64206
  27613581.107 7 111188627.64807  27613582.275 7 109775224.50107
  23886425.803 6 125524046.73006  97810992.08904  23886434.553 4  23886425.334 4
  23886435.070 6  23886433.480 7  93735530.82307

  21356303.439 7 114322378.14707  88917638.96307
  21356313.709 7

  23989286.547 8 126064631.64708
                  23989292.608 8  94139242.64008  23989290.016 8 102325232.58008
  23989290.482 8  96595033.46608  23989291.504 8  95367138.12608
  28098636.044 6 147659106.82506
                  28098657.482 6 110264869.53406  28098652.212 6 119853304.59706
  28098653.326 6 113141344.32306  28098655.301 6 111703109.49906
  25000647.905 7 131379598.62007
                  25000652.336 7  98108344.12607  25000652.856 7 106639435.73707
  25000650.300 7 100667663.67107  25000651.191 8  99388009.47308
  26995847.057 6 141864058.57006
                  26995858.873 7 105937445.34807  26995854.766 7 115149397.18807
  26995856.248 7 108701024.79307  26995857.438 7 107319235.14707
  37103769.495 7 194981597.37807
                  37103768.455 6 145603160.38206

  36827724.849 7 193530996.95907
                  36827734.899 7 144519950.44607

  25384501.096 7 133396880.67907
                  25384510.784 7  99614847.57807  25384506.826 7 108276448.97007
  25384508.127 7 102213457.99607  25384509.337 8 100914153.86308
  36973989.034 7 194299611.68907
                  36973994.630 6 145093903.16606

  23982887.892 6 126030966.17206  98205975.89204  23982892.460 4  23982887.052 4


  25747423.731 7 135303636.82407
                  25747432.819 7 101038473.94007  25747431.756 7 109824420.20507
  25747430.542 7 103674251.00207  25747431.538 8 102356365.54608
  24941380.854 7 131068148.98507
                  24941385.942 7  97875769.78507  24941385.065 7 106386631.66307
  24941383.915 8 100429026.19108  24941384.846 8  99152395.56208
  23505593.860 7 125562671.64107  97659897.79706
  23505603.117 6

  21991153.468 8 117555629.25808  91432337.60307
  21991161.116 7

  20502763.661 8 107742866.39008  83955559.71407  20502765.765 7  20502763.281 7
  20502766.132 7

  26055252.651 7 136921331.06907
                  26055260.098 7 102246496.44607  26055258.017 7 111137480.16607
  26055258.026 7 104913788.04007  26055258.901 7 103580146.31707
  23811563.276 6 127241654.75406  98965711.00006
  23811581.595 6

 25  4 11  0  2  0.0000000  0 30G18R20G15G05G23R22R21G13G10G25R06E03
                                G26R07E13E27E26E15S33S31E07S35G16E21
                                E08R12R05G29E23R11
  21157545.177 8 111183958.70808  86637001.48106  21157547.586 6  21157544.936 6
  21157547.838 7  21157550.690 8  83027185.21908

  21387318.005 6 114367630.29106  88952655.98307
  21387330.509 7

  20488051.976 8 107665928.78608  83895780.78307  20488054.348 7  20488051.686 7
  20488054.803 7

  23080630.962 7 121289676.92207  94511528.41905  23080635.158 5  23080630.743 5
  23080634.524 6

  20808931.393 7 109352110.51507  85209708.01906  20808934.260 6  20808931.183 6
  20808934.593 7  20808937.773 8  81659322.84908

  22791151.133 7 121660787.49407  94625126.44206
  22791158.861 6

  19953926.266 8 106777756.89108  83049529.75807
  19953933.110 7

  22304702.790 7 117212241.26807  91334341.51405  22304705.907 5  22304702.352 5


  23986754.385 6 126051461.50506  98222092.32704  23986765.243 4  23986754.104 4
  23986764.963 6  23986764.017 7  94129515.32507

  25013317.918 6 131445665.51406 102425166.30003  25013337.172 3  25013317.279 3
  25013337.699 6  25013339.326 6  98157441.74006

  19212354.697 6 102520876.87306


  27618808.290 6 145137955.11306
                  27618818.254 6 108382358.08106  27618815.151 6 117806687.86406
  27618816.180 7 111209706.42207  27618817.172 7 109796035.32507
  23888515.423 6 125535025.39606  97819546.88704  23888523.968 4  23888514.958 4
  23888524.752 6  23888522.658 7  93743729.19207

  21345348.228 7 114263734.48607  88872027.35507
  21345358.454 7

  23990258.081 7 126069737.50007
                  23990264.180 8  94143055.45708  23990261.542 8 102329376.94308
  23990262.072 8  96598945.74508  23990263.112 8  95371000.67508
  28106615.760 6 147701041.44606
                  28106637.217 6 110296184.14906  28106631.503 6 119887342.30306
  28106633.423 6 113173475.85406  28106635.497 6 111734832.57706
  24997223.714 7 131361605.62607
                  24997228.261 7  98094907.83507  24997228.803 7 106624831.06107
  24997226.360 7 100653876.86707  24997227.211 8  99374397.92508
  27000219.253 6 141887032.53606
                  27000230.733 7 105954601.19207  27000226.890 6 115168044.87106
  27000228.186 7 108718628.19507  27000229.277 7 107336614.76807
  37103775.129 7 194981629.47107
                  37103774.536 6 145603184.36906

  36827726.875 7 193531004.46507
                  36827736.298 7 144519956.14807

  25377101.283 7 133357997.25907
                  25377111.241 7  99585811.35807  25377107.486 7 108244887.82307
  25377108.770 7 102183664.30107  25377109.968 8 100884738.90608
  36973995.013 7 194299662.45207
                  36974004.351 6 145093941.04406

  23980304.570 6 126017387.04106  98195394.78004  23980308.533 4  23980303.721 4


  25753767.643 7 135336975.27807
                  25753776.866 7 101063369.49707  25753775.911 7 109851480.60607
  25753774.729 7 103699796.01007  25753775.688 8 102381585.82708
  24940168.812 7 131061779.61607
                  24940173.927 7  97871013.48007  24940172.914 7 106381461.74407
  24940171.867 8 100424145.79708  24940172.755 8  99147577.21208
  23508553.188 7 125578488.20207  97672199.54406
  23508564.707 6

  22001286.672 8 117609799.34908  91474469.86007
  22001294.382 7

  20506948.017 8 107764856.22908  83972694.63907  20506950.336 7  20506947.637 7
  20506950.837 7

  26055549.686 7 136922893.26707
                  26055557.287 7 102247663.03407  26055555.293 7 111138748.20707
  26055555.289 7 104914985.06607  26055556.152 7 103581328.12507
  23820413.346 6 127288935.25706  99002484.47706
  23820430.650 6

 25  4 11  0  2 15.0000000  0 30G18R20G15G05G23R22R21G13G10G25R06E03
                                G26R07E13E27E26E15S33S31E07S35G16E21
                                E08R12R05G29E23R11
  21154568.586 8 111168315.81308  86624812.23406  21154570.777 6  21154568.354 6
  21154570.886 7  21154573.958 8  83015503.85908

  21391819.689 6 114391693.00706  88971371.42707
  21391829.982 7

  20485892.474 8 107654580.81508  83886938.24007  20485894.850 7  20485892.188 7
  20485895.201 7

  23089467.473 7 121336113.25407  94547712.54205  23089471.228 5  23089467.254 5
  23089471.497 6

  20805341.491 7 109333244.69107  85195007.41206  20805344.142 6  20805341.281 6
  20805344.203 7  20805347.733 8  81645234.77408

  22782882.256 7 121616645.44807  94590793.78906
  22782889.698 6

  19950805.330 8 106761056.47508  83036540.56107
  19950812.084 7

  22307411.714 7 117226478.92107  91345435.79905  22307415.330 5  22307411.285 5


  23979116.004 6 126011322.08706  98190815.04204  23979126.603 4  23979115.709 4
  23979127.057 6  23979125.782 7  94099541.29407

  25021984.317 6 131491201.66606 102460648.83003  25022003.042 3  25021983.723 3
  25022003.584 6  25022005.019 6  98191445.78506

  19210073.190 6 102508710.36806


  27624057.355 6 145165540.00206
                  27624067.734 6 108402957.14906  27624064.433 6 117829078.17606
  27624065.333 7 111230842.87507  27624066.433 7 109816903.08507
  23890624.254 6 125546109.38906  97828183.75304  23890633.340 4  23890623.803 4
  23890633.309 6  23890631.750 7  93752006.16307

  21334409.667 7 114205181.08607  88826485.97807
  21334420.444 7

  23991231.610 8 126074852.40408
                  23991237.480 8  94146875.04208  23991234.921 8 102333528.65808
  23991235.449 8  96602864.97208  23991236.432 8  95374870.08108
  28114589.209 5 147742941.18205
                  28114610.416 6 110327472.71506  28114605.372 6 119921351.71006
  28114607.263 6 113205580.66606  28114608.803 6 111766529.26506
  24993800.087 7 131343612.62607
                  24993804.313 7  98081471.54407  24993804.928 7 106610226.37807
  24993802.355 7 100640090.05807  24993803.214 8  99360786.37508
  27004591.360 6 141910010.65806
                  27004603.348 7 105971760.14707  27004599.444 7 115186695.91907
  27004600.675 7 108736234.77807  27004601.915 7 107353997.53807
  37103778.894 7 194981657.90807
                  37103780.157 6 145603205.30606

  36827727.108 7 193531008.68107
                  36827737.157 7 144519959.21907

  25369709.676 7 133319153.47207
                  25369719.598 7  99556804.73007  25369715.832 7 108213358.83007
  25369716.912 7 102153900.96307  25369718.144 8 100855353.92108
  36974005.454 7 194299710.57707
                  36974013.402 6 145093977.02206

  23977745.730 6 126003939.51906  98184916.21604  23977749.522 4  23977744.885 4


  25760120.672 7 135370361.27907
                  25760130.045 7 101088300.55207  25760128.989 7 109878579.60107
  25760127.935 7 103725377.44707  25760128.871 8 102406842.07208
  24938976.286 7 131055511.87007
                  24938981.125 7  97866333.05307  24938980.049 7 106376374.31007
  24938979.077 8 100419343.27808  24938980.008 8  99142835.73908
  23511542.395 7 125594448.74307  97684613.26506
  23511553.034 6

  22011438.342 8 117664064.38108  91516675.96807
  22011446.142 7

  20511156.234 8 107786971.44308  83989927.26307  20511158.750 7  20511155.859 7
  20511158.999 7

  26055865.842 7 136924554.56407
                  26055873.424 7 102248903.62107  26055871.183 7 111140096.65807
  26055871.479 7 104916258.00507  26055872.264 7 103582584.88707
  23829262.724 6 127336229.78906  99039268.92306
  23829280.322 6

 25  4 11  0  2 30.0000000  0 30G18R20G15G05G23R22R21G13G10G25R06E03
                                G26R07E13E27E26E15S33S31E07S35G16E21
                                E08R12R05G29E23R11
  21151598.535 8 111152709.28008  86612651.31906  21151600.900 6  21151598.303 6
  21151601.227 7  21151604.141 8  83003849.65508

  21396332.600 6 114415834.28106  88990147.95407
  21396345.470 7

  20483763.327 8 107643392.03208  83878219.73807  20483765.691 7  20483763.046 7
  20483766.325 7

  23098306.875 7 121382566.62107  94583909.94605  23098310.892 5  23098306.647 5
  23098311.657 6

  20801769.427 7 109314474.51007  85180381.33506  20801772.246 6  20801769.222 6
  20801772.345 7  20801775.805 8  81631218.12308

  22774609.908 7 121572489.34007  94556450.21806
  22774617.313 6

  19947696.939 8 106744424.57408  83023604.65907
  19947704.104 7

  22310150.283 7 117240869.15707  91356648.98705  22310153.537 5  22310149.854 5


  23971487.878 6 125971239.94906  98159582.39204  23971499.231 4  23971487.624 4
  23971499.139 6  23971498.002 7  94069610.03007

  25030640.279 5 131536693.14805 102496096.54603  25030660.180 3  25030639.649 3
  25030660.009 6  25030661.972 6  98225416.45306

  19207832.042 6 102496745.95106


  27629321.820 6 145193205.45106
                  27629332.264 6 108423616.40006  27629328.983 6 117851533.88306
  27629329.998 7 111252041.05707  27629330.995 7 109837831.80007
  23892754.568 6 125557303.90706  97836906.73804  23892763.688 4  23892754.117 4
  23892763.858 6  23892761.996 7  93760365.70107

  21323489.205 7 114146723.79507  88781019.30607
  21323499.953 7

  23992207.630 8 126079981.86708
                  23992213.597 8  94150705.49008  23992210.922 7 102337692.18707
  23992211.549 8  96606795.34708  23992212.538 8  95378750.49208
  28122557.630 5 147784811.27905
                  28122578.785 6 110358739.16406  28122572.961 6 119955337.03406
  28122574.922 6 113237662.77406  28122576.461 7 111798203.54507
  24990376.939 7 131325625.09507
                  24990381.461 7  98068039.32707  24990382.049 7 106595626.13807
  24990379.356 7 100626307.43107  24990380.276 8  99347178.95308
  27008966.179 6 141932998.44706
                  27008977.874 7 105988926.31607  27008973.893 6 115205354.79606
  27008975.245 7 108753848.76107  27008976.369 7 107371387.61607
  37103785.910 7 194981690.21607
                  37103786.055 6 145603229.70306

  36827728.851 7 193531016.18907
                  36827738.364 7 144519964.97107

  25362326.185 7 133280354.97807
                  25362336.386 7  99527831.93407  25362332.549 7 108181866.62707
  25362333.654 7 102124172.34107  25362334.927 8 100826003.21308
  36974015.292 7 194299761.65307
                  36974023.074 6 145094015.14906

  23975212.209 6 125990628.91006  98174544.33304  23975216.429 4  23975211.364 4


  25766484.260 7 135403799.99407
                  25766493.282 7 101113270.98207  25766492.359 7 109905721.39207
  25766491.092 7 103750999.28707  25766492.102 8 102432138.20808
  24937803.777 7 131049351.28107
                  24937808.833 7  97861732.65107  24937807.838 7 106371373.86207
  24937806.690 8 100414622.85308  24937807.655 8  99138175.32608
  23514557.221 7 125610558.86607  97697143.32807
  23514568.632 7

  22021607.729 8 117718429.48508  91558959.91907
  22021616.838 7

  20515389.622 8 107809217.35208  84007261.72807  20515392.049 7  20515389.251 7
  20515392.298 7

  26056201.494 7 136926320.37007
                  26056209.450 7 102250222.23507  26056207.033 7 111141529.94307
  26056207.383 7 104917611.03207  26056208.280 7 103583920.70907
  23838116.452 6 127383543.06106  99076067.91306
  23838134.468 6

 25  4 11  0  2 45.0000000  0 30G18R20G15G05G23R22R21G13G10G25R06E03
                                G26R07E13E27E26E15S33S31E07S35G16E21
                                E08R12R05G29E23R11
  21148634.546 8 111137134.20008  86600514.91706  21148636.988 6  21148634.296 6
  21148637.108 7  21148640.286 8  82992218.94108

  21400862.349 6 114440048.85406  89008981.47707
  21400873.226 7

  20481663.052 8 107632357.62108  83869621.52607  20481665.848 7  20481662.775 7
  20481666.314 7

  23107149.023 7 121429032.06707  94620116.74105  23107153.172 5  23107148.773 5
  23107153.698 6

  20798214.936 7 109295794.93807  85165825.86006  20798217.587 6  20798214.735 6
  20798218.145 7  20798221.191 8  81617269.13508

  22766335.267 7 121528314.35207  94522091.95006
  22766341.767 6

  19944601.459 8 106727856.34108  83010718.26607
  19944607.678 7

  22312916.680 7 117255406.92407  91367977.13305  22312920.103 5  22312916.247 5


  23963871.572 6 125931210.10506  98128390.48704  23963881.540 4  23963871.331 4
  23963881.272 6  23963880.346 7  94039717.84207

  25039287.222 5 131582134.64505 102531505.32203  25039307.515 3  25039286.547 3
  25039307.643 6  25039309.360 6  98259349.82606

  19205626.493 6 102484978.60106


  27634601.142 6 145220946.31406
                  27634611.109 6 108444331.95206  27634608.045 6 117874050.81606
  27634608.957 7 111273297.01407  27634609.928 7 109858817.55507
  23894905.270 6 125568603.78106  97845711.82304  23894913.845 4  23894904.819 4
  23894913.672 6  23894912.318 7  93768803.90007

  21312585.794 7 114088358.08807  88735623.89007
  21312596.522 7

  23993185.639 8 126085120.96808
                  23993191.529 8  94154543.14008  23993188.998 8 102341863.54308
  23993189.505 8  96610733.10308  23993190.473 8  95382638.19508
  28130518.558 6 147826646.56806
                  28130540.078 6 110389979.60806  28130534.293 6 119989294.11306
  28130535.709 6 113269718.20206  28130537.773 7 111829851.47807
  24986953.875 7 131307638.01107
                  24986958.576 7  98054607.44807  24986959.194 7 106581026.24807
  24986956.454 7 100612525.15507  24986957.410 8  99333571.87408
  27013341.765 6 141955991.00506
                  27013353.282 7 106006096.03607  27013348.802 7 115224017.56507
  27013350.558 7 108771466.39807  27013351.758 7 107388781.29207
  37103791.433 7 194981719.87007
                  37103791.671 6 145603251.90606

  36827730.112 7 193531020.93707
                  36827739.429 7 144519968.37807

  25354951.098 7 133241597.07207
                  25354960.891 7  99498889.45207  25354957.112 7 108150407.36507
  25354958.236 7 102094474.82007  25354959.442 8 100796683.21108
  36974023.774 7 194299810.61707
                  36974032.312 6 145094051.86506

  23972704.085 6 125977450.31506  98164275.32403  23972708.336 3  23972703.240 3


  25772856.008 7 135437286.21207
                  25772865.523 7 101138276.87407  25772864.673 7 109932901.72007
  25772863.412 7 103776657.51507  25772864.370 8 102457470.26808
  24936650.754 7 131043292.93307
                  24936655.843 7  97857208.59907  24936654.915 7 106366456.41107
  24936653.824 8 100409980.78408  24936654.750 8  99133592.26508
  23517600.657 7 125626813.12907  97709785.52106
  23517611.737 6

  22031796.088 8 117772888.96708  91601317.25007
  22031804.085 7

  20519646.641 8 107831588.97408  84024694.15107  20519649.230 7  20519646.266 7
  20519649.429 7

  26056556.746 7 136928185.63407
                  26056564.335 7 102251615.13407  26056562.243 7 111143043.96107
  26056562.339 7 104919040.25607  26056563.237 7 103585331.76907
  23846972.735 6 127430869.48006  99112877.14606
  23846992.509 6

 25  4 11  0  3  0.0000000  0 30G18R20G15G05G23R22R21G13G10G25R06E03
                                G26R07E13E27E26E15S33S31E07S35G16E21
                                E08R12R05G29E23R11
  21145677.312 8 111121594.39708  86588406.00106  21145679.873 6  21145677.053 6
  21145680.111 7  21145683.140 8  82980614.56608

  21405403.944 6 114464341.34506  89027875.62407
  21405415.947 7

  20479593.743 8 107621481.42208  83861146.59507  20479596.176 7  20479593.475 7
  20479596.651 7

  23115994.517 7 121475512.67707  94656335.36105  23115998.328 5  23115994.289 5
  23115998.723 6

  20794678.187 7 109277209.68207  85151343.87906  20794680.945 6  20794677.982 6
  20794681.214 7  20794684.527 8  81603390.57608

  22758056.606 7 121484124.31007  94487721.96206
  22758063.496 6

  19941517.415 8 106711355.66208  82997884.42707
  19941524.368 7

  22315712.014 7 117270095.85707  91379423.06305  22315715.489 5  22315711.581 5


  23956264.148 6 125891236.47006  98097242.37904  23956274.626 4  23956263.907 4
  23956274.432 6  23956273.880 7  94009867.61007

  25047927.098 6 131627529.67406 102566877.86003  25047946.033 3  25047926.396 3
  25047946.427 6  25047948.024 6  98293248.45706

  19203458.752 6 102473412.14106


  27639894.659 6 145248766.15106
                  27639905.228 6 108465106.45706  27639902.376 6 117896631.81306
  27639902.920 7 111294613.47107  27639903.869 7 109879863.03807
  23897076.408 6 125580012.51306  97854601.74604  23897084.760 4  23897075.939 4
  23897084.214 6  23897083.478 7  93777323.38207

  21301700.455 7 114030088.28607  88690303.06107
  21301710.824 7

  23994165.961 8 126090273.45508
                  23994171.968 8  94158390.77808  23994169.379 8 102346045.75508
  23994169.969 8  96614681.11608  23994170.952 8  95386536.02008
  28138473.234 6 147868450.57406
                  28138495.029 6 110421196.64906  28138489.347 6 120023225.75106
  28138491.075 6 113301749.64606  28138493.107 6 111861475.71906
  24983532.148 7 131289655.10807
                  24983536.496 7  98041178.70107  24983537.184 7 106566429.77107
  24983534.397 7 100598746.08707  24983535.340 8  99319967.96708
  27017718.609 6 141978992.09406
                  27017730.167 7 106023272.15207  27017726.070 6 115242687.26606
  27017727.559 7 108789090.58707  27017728.721 7 107406181.44407
  37103798.735 7 194981750.31607
                  37103797.619 6 145603274.39106

  36827729.518 7 193531027.22407
                  36827740.426 7 144519973.00907

  25347584.145 7 133202883.72407
                  25347593.840 7  99469980.23707  25347590.056 7 108118984.25707
  25347591.231 7 102064811.43407  25347592.448 8 100767396.91108
  36974033.473 7 194299860.83607
                  36974041.797 6 145094089.33306

  23970222.230 6 125964407.65206  98154112.21603  23970226.384 3  23970221.376 3


  25779238.006 7 135470823.38507
                  25779247.517 7 101163320.82607  25779246.240 7 109960123.42507
  25779245.398 7 103802354.78907  25779246.319 8 102482840.88208
  24935517.965 7 131037340.61907
                  24935523.165 7  97852763.72207  24935522.372 7 106361624.99507
  24935521.111 8 100405419.94408  24935522.026 8  99129089.40608
  23520670.921 7 125643214.91907  97722542.43506
  23520681.811 6

  22042002.483 8 117827446.01408  91643750.47407
  22042009.943 7

  20523928.645 8 107854089.88708  84042227.31707  20523931.019 7  20523928.270 7
  20523931.278 7

  26056931.409 7 136930154.04907
                  26056939.006 7 102253085.05907  26056937.062 7 111144641.70507
  26056936.897 7 104920548.53507  26056937.798 7 103586820.87107
  23855834.421 6 127478212.40606  99149699.22306
  23855851.962 6

 25  4 11  0  3 15.0000000  0 30G18R20G15G05G23R22R21G13G10G25R06E03
                                G26R07E13E27E26E15S33S31E07S35G16E21
                                E08R12R05G29E23R11
  21142726.884 8 111106088.95208  86576323.86106  21142729.295 6  21142726.634 6
  21142729.747 7  21142732.472 8  82969035.85508

  21409962.001 6 114488710.82306  89046829.64807
  21409973.932 7

  20477553.831 8 107610762.63708  83852794.32507  20477556.432 7  20477553.559 7
  20477556.845 7

  23124842.038 7 121522007.41707  94692564.98805  23124845.885 5  23124841.815 5
  23124846.291 6

  20791158.985 7 109258717.70207  85136934.57506  20791162.007 6  20791158.766 6
  20791162.083 7  20791165.520 8  81589581.66708

  22749775.209 7 121439918.43607  94453339.68406
  22749783.188 6

  19938446.251 8 106694922.08808  82985102.78307
  19938453.437 7

  22318535.774 7 117284934.91807  91390985.97605  22318539.251 5  22318535.345 5


  23948667.629 6 125851318.07706  98066137.31704  23948678.064 4  23948667.397 4
  23948678.352 6  23948676.849 7  93980058.62807

  25056557.030 5 131672876.94105 102602213.19103  25056575.423 3  25056556.320 3
  25056576.504 6  25056577.147 6  98327111.46806

  19201328.811 6 102462045.54906


  27645203.356 6 145276663.76606
                  27645214.003 6 108485939.06006  27645211.171 6 117919275.96406
  27645211.454 7 111315989.54507  27645212.687 7 109900967.37407
  23899267.546 6 125591528.85606  97863575.50404  23899276.230 4  23899267.086 4
  23899276.225 6  23899275.022 7  93785923.25307

  21290833.462 8 113971913.58308  88645056.19707
  21290843.162 7

  23995148.805 8 126095438.38608
                  23995154.923 8  94162247.71208  23995152.328 8 102350238.07408
  23995152.784 8  96618638.66808  23995153.810 8  95390443.26408
  28146422.408 6 147910222.04106
                  28146443.876 6 110452389.43906  28146438.542 6 120057131.05706
  28146440.195 6 113333756.17406  28146441.980 6 111893075.38406
  24980110.454 7 131271675.37307
                  24980114.984 7  98027752.31807  24980115.811 7 106551835.86007
  24980113.029 7 100584969.44507  24980113.896 8  99306366.45508
  27022097.227 6 142002000.83806
                  27022108.668 7 106040453.95807  27022104.722 6 115261363.16406
  27022105.895 7 108806720.61807  27022107.159 7 107423587.36207
  37103805.625 7 194981781.79707
                  37103803.530 6 145603298.11006

  36827733.685 7 193531034.19407
                  36827741.732 7 144519978.34107

  25340225.302 7 133164214.19807
                  25340235.245 7  99441103.74507  25340231.515 7 108087596.74507
  25340232.531 7 102035181.64407  25340233.776 8 100738143.76908
  36974043.999 7 194299911.42507
                  36974051.500 6 145094127.06906

  23967766.766 6 125951499.91706  98144054.25903  23967770.323 3  23967765.930 3


  25785629.631 7 135504410.28207
                  25785638.931 7 101188401.90907  25785638.061 7 109987385.49207
  25785636.769 7 103828090.17007  25785637.752 8 102508249.11308
  24934405.421 7 131031493.40807
                  24934410.464 7  97848397.33907  24934409.471 7 106356878.91607
  24934408.457 8 100400939.65708  24934409.312 8  99124666.07208
  23523769.431 7 125659762.92107  97735413.05306
  23523779.559 6

  22052226.070 8 117882099.27808  91686258.54207
  22052233.406 7

  20528234.887 8 107876719.28408  84059860.60607  20528237.268 7  20528234.516 7
  20528237.441 7

  26057325.337 7 136932224.57207
                  26057333.074 7 102254631.22107  26057330.852 7 111146322.31807
  26057330.891 7 104922135.03207  26057331.793 7 103588387.20007
  23864696.290 6 127525570.24806  99186532.86406
  23864713.469 6

 25  4 11  0  3 30.0000000  0 31G18R20G15G05G23R22R21G13G10G25R06R13
                                E03G26R07E13E27E26E15S33S31E07S35G16
                                E21E08R12R05G29E23R11
  21139783.034 8 111090618.63608  86564269.08906  21139785.416 6  21139782.784 6
  21139785.594 7  21139788.611 8  82957483.36808

  21414533.658 6 114513157.35406  89065843.60107
  21414544.705 7

  20475544.136 8 107600202.09008  83844565.35707  20475546.818 7  20475543.859 7
  20475547.035 7

  23133692.319 7 121568516.84607  94728806.07005  23133696.393 5  23133692.100 5
  23133696.801 6

  20787658.039 7 109240319.63507  85122598.45506  20787660.923 6  20787657.811 6
  20787661.165 7  20787664.402 8  81575842.89308

  22741490.637 7 121395697.46607  94418945.64606
  22741498.710 6

  19935387.785 8 106678556.52408  82972374.03507
  19935395.179 7

  22321388.274 7 117299924.75607  91402666.38605  22321391.619 5  22321387.854 5


  23941081.671 6 125811455.71906  98035075.91604  23941092.363 4  23941081.435 4
  23941091.715 6  23941091.351 7  93950291.48807

  25065176.889 5 131718176.83805 102637511.60303  25065196.224 3  25065176.156 3
  25065196.732 6  25065197.911 6  98360939.08506

  19199236.345 6 102450879.55006


  24716050.994 5 131982333.70215


  27650526.887 6 145304639.70206
                  27650537.622 6 108506830.14406  27650534.499 6 117941983.65906
  27650535.241 6 111337425.61806  27650536.395 7 109922130.95207
  23901479.527 6 125603153.33706  97872633.53104  23901488.163 4  23901479.045 4
  23901488.492 6  23901487.016 7  93794603.86007

  21279982.877 7 113913835.49007  88599884.49107
  21279994.092 7

  23996134.313 7 126100616.48707
                  23996140.222 8  94166114.48008  23996137.768 8 102354441.07808
  23996138.113 8  96622606.30608  23996139.159 8  95394360.46708
  28154365.692 6 147951961.55406
                  28154386.992 6 110483558.32906  28154381.515 6 120091010.36606
  28154383.065 6 113365738.19306  28154384.820 7 111924650.83307
  24976689.838 7 131253699.49007
                  24976694.236 7  98014328.79107  24976694.983 7 106537245.06007
  24976692.243 7 100571195.74007  24976693.149 8  99292767.83908
  27026477.276 6 142025017.94606
                  27026488.824 7 106057642.02407  27026485.168 7 115280045.85707
  27026486.172 7 108824357.06907  27026487.208 7 107440999.62307
  37103813.120 7 194981814.76107
                  37103809.692 6 145603322.97706

  36827733.515 7 193531041.90507
                  36827743.279 7 144519983.96907

  25332875.156 7 133125589.43907
                  25332885.021 7  99412260.66307  25332881.118 7 108056245.54007
  25332882.444 7 102005586.12707  25332883.627 8 100708924.47108
  36974053.980 7 194299963.27007
                  36974061.360 6 145094165.88706

  23965336.261 6 125938728.06706  98134102.20103  23965339.786 3  23965335.416 3


  25792031.058 7 135538047.34207
                  25792039.940 7 101213520.44207  25792038.949 7 110014688.26807
  25792037.796 7 103853863.98407  25792038.710 8 102533695.28908
  24933312.747 7 131025752.07307
                  24933317.856 7  97844110.02507  24933316.749 7 106352218.77107
  24933315.776 8 100396540.49008  24933316.733 8  99120322.83108
  23526894.145 7 125676457.60507  97748397.79206
  23526904.405 6

  22062467.809 8 117936848.76808  91728841.44907
  22062476.354 7

  20532565.879 8 107899477.67208  84077594.40307  20532567.998 7  20532565.508 7
  20532568.511 7

  26057738.895 7 136934397.80507
                  26057746.464 7 102256254.10107  26057744.612 7 111148086.31307
  26057744.567 7 104923800.24907  26057745.320 7 103590031.24907
  23873561.440 6 127572943.10406  99223378.20306
  23873579.590 6

 25  4 11  0  3 45.0000000  0 31G18R20G15G05G23R22R21G13G10G25R06R13
                                E03G26R07E13E27E26E15S33S31E07S35G16
                                E21E08R12R05G29E23R11
  21136844.126 8 111075174.68208  86552234.85806  21136846.527 6  21136843.876 6
  21136846.461 7  21136849.683 8  82945950.57008

  21419118.754 6 114537672.32806  89084910.77307
  21419128.893 7

  20473562.887 8 107589791.02408  83836452.86306  20473565.647 6  20473562.606 6
  20473565.702 7

  23142543.817 7 121615031.85107  94765051.48705  23142547.903 5  23142543.598 5
  23142548.215 6

  20784172.949 7 109222006.60307  85108328.59106  20784176.067 6  20784172.721 6
  20784176.394 7  20784179.528 8  81562167.61708

  22733202.259 7 121351452.61407  94384533.05806
  22733210.208 6

  19932340.745 8 106662250.15508  82959691.31007
  19932347.946 7

  22324267.351 7 117315056.37107  91414457.26505  22324271.120 5  22324266.922 5


  23933505.356 6 125771640.63906  98004051.36204  23933515.570 4  23933505.120 4
  23933515.457 6  23933514.555 7  93920559.65607

  25073786.338 5 131763420.32805 102672766.06803  25073805.551 3  25073785.628 3
  25073805.891 6  25073807.591 6  98394724.54706

  19197179.285 6 102439905.31606


  24713037.835 5 131966243.84505


  27655863.921 6 145332684.93306
                  27655874.384 6 108527772.99006  27655871.428 6 117964747.63706
  27655872.233 7 111358914.78607  27655873.227 7 109943346.95907
  23903710.707 6 125614876.84006  97881768.71904  23903718.725 4  23903710.220 4
  23903719.212 6  23903717.914 7  93803358.41607

  21269150.271 7 113855845.01107  88554780.89907
  21269160.835 7

  23997120.354 8 126105798.94608
                  23997126.428 8  94169984.50708  23997123.997 8 102358647.63308
  23997124.350 8  96626577.29408  23997125.353 8  95398280.97408
  28162300.777 6 147993659.96306
                  28162321.929 6 110514696.54706  28162316.724 6 120124856.34206
  28162317.847 6 113397688.75206  28162320.049 6 111956195.21906
  24973268.207 7 131235718.55807
                  24973272.582 7  98000901.51507  24973273.454 7 106522650.18507
  24973270.558 7 100557418.17907  24973271.468 8  99279165.42108
  27030857.412 6 142048034.64606
                  27030868.925 7 106074829.77607  27030864.931 6 115298728.21906
  27030866.126 7 108841993.20507  27030867.175 7 107458411.56607
  37103813.317 7 194981838.91307
                  37103814.539 6 145603340.67206

  36827732.518 7 193531042.12407
                  36827743.386 7 144519984.22707

  25325531.979 7 133087000.79607
                  25325541.823 7  99383444.58607  25325538.102 7 108024923.66907
  25325539.164 7 101976018.30907  25325540.351 8 100679732.52208
  36974064.269 7 194300007.50207
                  36974069.718 6 145094198.91006

  23962929.381 6 125926082.90606  98124248.84103  23962933.365 3  23962928.545 3


  25798439.260 7 135571725.46207
                  25798448.605 7 101238669.64107  25798447.669 7 110042024.36807
  25798446.557 7 103879669.24507  25798447.497 8 102559172.51808
  24932238.633 7 131020107.79107
                  24932243.712 7  97839895.17107  24932242.618 7 106347637.39507
  24932241.686 8 100392215.67608  24932242.627 8  99116052.99808
  23530046.072 7 125693289.67907  97761489.34306
  23530055.893 6

  22072725.810 8 117991684.86408  91771491.71607
  22072734.101 7

  20536919.380 8 107922356.01308  84095421.67307  20536921.637 7  20536919.005 7
  20536921.913 7

  26058170.005 7 136936664.86407
